#Code,Name,LAT,LONG,X,Y
ABW,Abbey Wood,51.49,0.12,969.34,4.36
ABE,Aber,51.57,-3.23,-1763.06,-105.43
ACY,Abercynon,51.64,-3.33,-1842.3,-196.38
ABA,Aberdare,51.72,-3.44,-1936.99,-288.11
ABD,Aberdeen,57.14,-2.1,-839.51,-7366.21
AUR,Aberdour,56.05,-3.3,-1820.73,-5946.85
AVY,Aberdovey,52.54,-4.06,-2437.76,-1369.02
ABH,Abererch,52.9,-4.37,-2696.39,-1831.46
AGV,Abergavenny,51.82,-3.01,-1583.48,-420.65
AGL,Abergele & Pensarn,53.29,-3.58,-2050.79,-2347.83
AYW,Aberystwyth,52.41,-4.08,-2458,-1199.61
ACR,Accrington,53.75,-2.37,-1061.78,-2945.86
AAT,Achanalt,57.61,-4.91,-3136.84,-7974.88
ACN,Achnasheen,57.58,-5.07,-3265.82,-7934.83
ACH,Achnashellach,57.48,-5.33,-3478.45,-7808.28
ACK,Acklington,55.31,-1.65,-476.04,-4972.14
ACL,Acle,52.63,1.54,2130.43,-1487.34
ACG,Acocks Green,52.45,-1.82,-612.36,-1245.61
ACB,Acton Bridge,53.27,-2.6,-1251.53,-2310.52
ACC,Acton Central,51.51,-0.26,656.19,-19.12
AML,Acton Main Line,51.52,-0.27,652.92,-29.75
ADD,Adderley Park,52.48,-1.86,-642.5,-1289.64
ADW,Addiewell,55.84,-3.61,-2070.28,-5671.48
ASN,Addlestone,51.37,-0.48,476.08,157.87
ADM,Adisham,51.24,1.2,1849.19,329.79
ADC,Adlington (Cheshire),53.32,-2.13,-868.93,-2380.4
ADL,Adlington (Lancs),53.61,-2.6,-1251.86,-2762.96
AWK,Adwick,53.57,-1.18,-92.41,-2710.9
AIG,Aigburth,53.36,-2.93,-1516.19,-2439.1
ANS,Ainsdale,53.6,-3.04,-1610.4,-2748.47
AIN,Aintree,53.47,-2.96,-1540.26,-2581.79
AIR,Airbles,55.78,-3.99,-2386.45,-5592.48
ADR,Airdrie,55.86,-3.98,-2377.25,-5698.3
AYP,Albany Park,51.44,0.13,974.3,76.03
ALB,Albrighton,52.64,-2.27,-979.32,-1491.58
ALD,Alderley Edge,53.3,-2.24,-953.13,-2359.83
AMT,Aldermaston,51.4,-1.14,-57.58,120.1
AHT,Aldershot,51.25,-0.76,251.46,322.99
AGT,Aldrington,50.84,-0.18,723.41,857.7
AAP,Alexandra Palace,51.6,-0.12,773.21,-135.85
AXP,Alexandra Parade,55.86,-4.21,-2563.63,-5697.9
ALX,Alexandria,55.99,-4.58,-2862.18,-5856.22
ALF,Alfreton,53.1,-1.37,-245.92,-2094.68
ALW,Allens West,54.52,-1.36,-240.81,-3951.13
ALO,Alloa,56.12,-3.79,-2219.96,-6029.27
ASS,Alness,57.69,-4.25,-2594.88,-8085.15
ALM,Alnmouth,55.39,-1.64,-463.84,-5083.38
ALR,Alresford,51.85,1,1684.11,-469.3
ASG,Alsager,53.09,-2.3,-1003.55,-2084.63
ALN,Althorne,51.65,0.75,1484.94,-200.51
ALP,Althorpe,53.59,-0.73,273.7,-2726.9
ABC,Altnabreac,58.39,-3.71,-2150.82,-8990.06
AON,Alton,51.15,-0.97,82.58,446.16
ALT,Altrincham,53.39,-2.35,-1043.24,-2468.92
ALV,Alvechurch,52.35,-1.97,-733.62,-1110.97
AMB,Ambergate,53.06,-1.48,-336.45,-2042.63
AMY,Amberley,50.9,-0.54,429.15,779.06
AMR,Amersham,51.67,-0.61,375.65,-234.85
AMF,Ammanford,51.8,-4,-2388.56,-393.63
ANC,Ancaster,52.99,-0.54,434.35,-1947.94
AND,Anderston,55.86,-4.27,-2612.99,-5692.94
ADV,Andover,51.21,-1.49,-345.87,368.46
ANZ,Anerley,51.41,-0.07,817.44,105.7
AGR,Angel Road,51.61,-0.05,831.41,-154.27
ANG,Angmering,50.82,-0.49,472.05,883.51
ANN,Annan,54.98,-3.26,-1789.76,-4550.6
ANL,Anniesland,55.89,-4.32,-2653.53,-5731.58
AFV,Ansdell & Fairhaven,53.74,-2.99,-1569.94,-2930.69
APP,Appleby,54.58,-2.49,-1156.95,-4024.46
APD,Appledore (Kent),51.03,0.82,1537.02,600.98
APF,Appleford,51.64,-1.24,-141.89,-189.77
APB,Appley Bridge,53.58,-2.72,-1346.32,-2718.76
APS,Apsley,51.73,-0.46,493.64,-310.89
ARB,Arbroath,56.56,-2.59,-1240.34,-6605.35
ARD,Ardgay,57.88,-4.36,-2686.92,-8328.52
AUI,Ardlui,56.3,-4.72,-2979.77,-6269.42
ADS,Ardrossan Harbour,55.64,-4.82,-3060.89,-5406.06
ASB,Ardrossan South Beach,55.64,-4.8,-3044.66,-5408.07
ADN,Ardrossan Town,55.64,-4.81,-3054.01,-5405.84
ADK,Ardwick,53.47,-2.21,-934.44,-2578.34
AGS,Argyle Street,55.86,-4.25,-2595.65,-5689.61
ARG,Arisaig,56.91,-5.84,-3891.15,-7065.61
ARL,Arlesey,52.03,-0.27,653.99,-693.64
AWT,Armathwaite,54.81,-2.77,-1389.38,-4322.76
ARN,Arnside,54.2,-2.83,-1435.13,-3531.23
ARR,Arram,53.88,-0.43,523.06,-3117.18
ART,Arrochar & Tarbet,56.2,-4.72,-2980.68,-6141.64
ARU,Arundel,50.85,-0.55,425.74,842.27
ACT,Ascot,51.41,-0.68,319.99,114.57
AUW,Ascott-under-Wychwood,51.87,-1.56,-404.45,-486.69
ASH,Ash,51.25,-0.71,289.84,318.85
AHV,Ash Vale,51.27,-0.72,282.62,289.31
ABY,Ashburys,53.47,-2.19,-918.47,-2578.38
ASC,Ashchurch for Tewkesbury,52,-2.11,-848.95,-658.6
ASF,Ashfield,55.89,-4.25,-2594.45,-5730.82
AFK,Ashford International,51.14,0.88,1585.84,456.93
ASI,Ashford International (Eurostar),51.14,0.88,1584.85,460.59
AFS,Ashford (Surrey),51.44,-0.47,489.45,75.11
ASY,Ashley,53.36,-2.34,-1038.13,-2427.92
AHD,Ashtead,51.32,-0.31,619.88,229.8
AHN,Ashton-under-Lyne,53.49,-2.09,-836.18,-2604.32
AHS,Ashurst,51.13,0.15,995.71,476.55
ANF,Ashurst New Forest,50.89,-1.53,-373.93,787.97
AWM,Ashwell & Morden,52.03,-0.11,781.66,-699.82
ASK,Askam,54.19,-3.2,-1742.41,-3514.19
ALK,Aslockton,52.95,-0.9,138.35,-1900.3
ASP,Aspatria,54.76,-3.33,-1846.17,-4257.84
APG,Aspley Guise,52.02,-0.63,355.47,-687.39
AST,Aston,52.51,-1.87,-655.42,-1318.38
ATH,Atherstone,52.58,-1.55,-395.27,-1414.67
ATN,Atherton,53.53,-2.48,-1150,-2653.52
ATT,Attadale,57.39,-5.46,-3579.11,-7694.45
ATB,Attenborough,52.91,-1.23,-133.02,-1841.58
ATL,Attleborough,52.51,1.02,1705.3,-1330.28
AUK,Auchinleck,55.47,-4.3,-2632.08,-5184.91
AUD,Audley End,52,0.21,1040.16,-665.48
AUG,Aughton Park,53.55,-2.9,-1490.03,-2686.73
AVM,Aviemore,57.19,-3.83,-2251.19,-7426.21
AVF,Avoncliff,51.34,-2.28,-989.46,201.42
AVN,Avonmouth,51.5,-2.7,-1329.63,-7.84
AXM,Axminster,50.78,-3.01,-1579.86,933.05
AYS,Aylesbury,51.81,-0.82,206.41,-417
AVP,Aylesbury Vale Parkway,0,0,871.2,67148.32
AYL,Aylesford,51.3,0.47,1251.41,251.4
AYH,Aylesham,51.23,1.21,1857.64,347.98
AYR,Ayr,55.46,-4.63,-2902.43,-5169.18
BAC,Bache,53.21,-2.89,-1487.81,-2236.65
BAJ,Baglan,51.62,-3.81,-2237.18,-158.34
BAG,Bagshot,51.36,-0.69,309.53,169.18
BLD,Baildon,53.85,-1.75,-559.13,-3071.68
BIO,Baillieston,55.84,-4.11,-2484.58,-5673.18
BAB,Balcombe,51.06,-0.14,759.52,571.93
BDK,Baldock,51.99,-0.19,718.23,-650.4
BAL,Balham,51.44,-0.15,746.89,66.35
BHC,Balloch,56,-4.58,-2867.08,-5879.48
BSI,Balmossie,56.47,-2.84,-1444.25,-6494.5
BMB,Bamber Bridge,53.73,-2.66,-1298.92,-2911.41
BAM,Bamford,53.34,-1.69,-506.42,-2405.76
BNV,Banavie,56.84,-5.1,-3284.62,-6975.33
BAN,Banbury,52.06,-1.33,-212.02,-738.33
BNG,Bangor (Gwynedd),53.22,-4.14,-2502.03,-2253.56
BAH,Bank Hall,53.44,-2.99,-1565.38,-2534.57
BAD,Banstead,51.33,-0.21,697.35,214.85
BSS,Barassie,55.56,-4.65,-2922.26,-5303.28
ZBB,Barbican,51.52,-0.1,791.73,-33.35
BLL,Bardon Mill,54.97,-2.35,-1042.6,-4538.42
BAR,Bare Lane,54.08,-2.84,-1441.79,-3365.91
BGI,Bargeddie,55.85,-4.07,-2449.71,-5682.33
BGD,Bargoed,51.69,-3.23,-1762.93,-258.45
BKG,Barking,51.54,0.08,937.1,-59.89
ZBK,Barking Underground,0,0,871.2,67148.32
BRT,Barlaston,52.94,-2.17,-897.11,-1889.2
BMG,Barming,51.28,0.48,1261.84,272.82
BRM,Barmouth,52.72,-4.06,-2437.37,-1602.36
BNH,Barnehurst,51.46,0.16,1002.41,38.16
BNS,Barnes,51.47,-0.24,674.87,35.26
BNI,Barnes Bridge,51.47,-0.25,665.62,29.18
BTB,Barnetby,53.57,-0.41,537.04,-2712.49
BAA,Barnham,50.83,-0.64,349.48,864.84
BNL,Barnhill,55.88,-4.22,-2573.42,-5716.37
BNY,Barnsley,53.55,-1.48,-333.51,-2686.91
BNP,Barnstaple,51.07,-4.06,-2442.71,547.87
BTG,Barnt Green,52.36,-1.99,-753.86,-1130.55
BRR,Barrhead,55.8,-4.4,-2715.22,-5619.75
BRL,Barrhill,55.1,-4.78,-3028.82,-4698.16
BAV,Barrow Haven,53.7,-0.39,551.94,-2872.76
BWS,Barrow Upon Soar,52.75,-1.15,-66.39,-1638.05
BIF,Barrow-in-Furness,54.12,-3.23,-1760.03,-3422.86
BRY,Barry,51.4,-3.28,-1808.04,126.92
BYD,Barry Docks,51.4,-3.26,-1788.24,119.54
BYI,Barry Island,51.39,-3.27,-1798.57,132.61
BYL,Barry Links,56.49,-2.75,-1367.98,-6518.73
BAU,Barton-on-Humber,53.69,-0.44,509.68,-2861.93
BSO,Basildon,51.57,0.46,1243.76,-96.5
BSK,Basingstoke,51.27,-1.09,-15.57,294.38
BBL,Bat & Ball,51.29,0.19,1029.62,266.48
BTH,Bath Spa,51.38,-2.36,-1051.2,151.82
BHG,Bathgate,55.9,-3.64,-2098.37,-5744.12
BTL,Batley,53.71,-1.62,-452.3,-2888.41
BTT,Battersby,54.46,-1.09,-20.23,-3864.51
BAK,Battersea Park,51.48,-0.15,750.36,21.88
BAT,Battle,50.91,0.49,1274.68,757.88
BLB,Battlesbridge,51.62,0.57,1332.67,-170.5
BAY,Bayford,51.76,-0.1,793.23,-343.75
BCF,Beaconsfield,51.61,-0.64,346.1,-152.8
BER,Bearley,52.24,-1.75,-556.32,-978.41
BRN,Bearsden,55.92,-4.33,-2662.71,-5767.64
BSD,Bearsted,51.28,0.58,1342.28,284.65
BSL,Beasdale,56.9,-5.76,-3829.75,-7048.66
BEU,Beaulieu Road,50.86,-1.5,-356.08,833.35
BEL,Beauly,57.48,-4.47,-2774.49,-7803.26
BEB,Bebington,53.36,-3,-1578.57,-2430.08
BCC,Beccles,52.46,1.57,2151.29,-1257.62
BEC,Beckenham Hill,51.42,-0.02,857.73,90.36
BKJ,Beckenham Junction,51.41,-0.03,849.05,107.71
BDM,Bedford,52.14,-0.48,480.17,-837.29
BSJ,Bedford St Johns,52.13,-0.47,489.9,-828.54
BDH,Bedhampton,50.85,-1,59.01,834.78
BMT,Bedminster,51.44,-2.59,-1244.59,70.45
BEH,Bedworth,52.48,-1.47,-325.6,-1284.7
BDW,Bedwyn,51.38,-1.6,-432.78,149.28
BEE,Beeston,52.92,-1.21,-113.77,-1860.37
BKS,Bekesbourne,51.26,1.14,1798.31,303.5
BLV,Belle Vue,53.46,-2.18,-907.13,-2566.34
BLG,Bellgrove,55.86,-4.23,-2575.06,-5689.36
BGM,Bellingham,51.43,-0.02,854.53,78.54
BLH,Bellshill,55.82,-4.03,-2411.74,-5636.46
BLM,Belmont,51.34,-0.2,708.5,195.56
BLP,Belper,53.02,-1.48,-338.02,-1995.75
BEG,Beltring,51.2,0.4,1200.29,377.39
BVD,Belvedere,51.49,0.15,995.23,2.76
BEM,Bempton,54.13,-0.18,724.04,-3434.98
BEY,Ben Rhydding,53.93,-1.8,-594.78,-3171.42
BEF,Benfleet,51.54,0.56,1329.34,-64.99
BEN,Bentham,54.12,-2.51,-1176.7,-3418.68
BTY,Bentley,51.18,-0.87,163.15,408
BYK,Bentley (South Yorks),53.54,-1.15,-68.01,-2672.65
BAS,Bere Alston,50.49,-4.2,-2554.64,1315.11
BFE,Bere Ferrers,50.45,-4.18,-2539.54,1360.4
BKM,Berkhamsted,51.76,-0.56,412.83,-350.81
BKW,Berkswell,52.4,-1.64,-468.7,-1175.93
BYA,Berney Arms,52.59,1.63,2200.95,-1428.79
BBW,Berry Brow,53.62,-1.79,-591.52,-2773.54
BRS,Berrylands,51.4,-0.28,642.25,123.96
BRK,Berwick,50.84,0.17,1006.61,852.47
BWK,Berwick-upon-Tweed,55.77,-2.01,-769.08,-5582.05
BES,Bescar Lane,53.62,-2.91,-1506.02,-2776.79
BSC,Bescot Stadium,52.56,-1.99,-752.74,-1393.5
BTO,Betchworth,51.25,-0.27,653.46,320.68
BET,Bethnal Green,51.52,-0.06,822.46,-39.58
BYC,Betws-y-Coed,53.09,-3.8,-2228.8,-2083.76
BEV,Beverley,53.84,-0.42,525.48,-3062.04
BEX,Bexhill,50.84,0.48,1260.27,851.61
BXY,Bexley,51.44,0.15,992.1,69.52
BXH,Bexleyheath,51.46,0.13,980.05,39.85
BCS,Bicester North,51.9,-1.15,-67.05,-533.83
BIT,Bicester Town,51.89,-1.15,-65.16,-520.8
BKL,Bickley,51.4,0.04,907.29,122.21
BID,Bidston,53.41,-3.08,-1639.68,-2497.21
BIW,Biggleswade,52.08,-0.26,658.18,-770.12
BBK,Bilbrook,52.62,-2.19,-911.78,-1473.03
BIC,Billericay,51.63,0.42,1212.64,-175.75
BIL,Billingham,54.61,-1.28,-171.58,-4058.33
BIG,Billingshurst,51.02,-0.45,503.94,624.5
BIN,Bingham,52.95,-0.95,94.71,-1904.45
BIY,Bingley,53.85,-1.84,-627.01,-3070.01
BCG,Birchgrove,51.52,-3.2,-1741.55,-36.03
BCH,Birchington-on-sea,51.38,1.3,1932.64,152.06
BWD,Birchwood,53.41,-2.53,-1190.65,-2500.88
BIK,Birkbeck,51.4,-0.06,825.33,117.63
BDL,Birkdale,53.63,-3.01,-1587.6,-2789.81
BKC,Birkenhead Central,53.39,-3.02,-1591.44,-2470.94
BKN,Birkenhead North,53.4,-3.06,-1622.42,-2491.59
BKP,Birkenhead Park,53.4,-3.04,-1607.55,-2482.44
BHI,Birmingham International,52.45,-1.73,-536.41,-1247.54
BMO,Birmingham Moor Street,52.48,-1.89,-672.3,-1284.41
BHM,Birmingham New Street,52.48,-1.9,-677.1,-1283.25
BSW,Birmingham Snow Hill,52.48,-1.9,-678.29,-1290.28
BIA,Bishop Auckland,54.66,-1.68,-497.02,-4125.02
BBG,Bishopbriggs,55.9,-4.22,-2574.63,-5750.32
BIS,Bishops Stortford,51.87,0.16,1005.7,-485.85
BIP,Bishopstone,50.78,0.08,938.7,931.02
BPT,Bishopton,55.9,-4.5,-2800.28,-5748.08
BTE,Bitterne,50.92,-1.38,-251.87,750.67
BBN,Blackburn,53.75,-2.48,-1150.78,-2937.15
BKH,Blackheath,51.47,0.01,877.97,36.96
BHO,Blackhorse Road,51.59,-0.04,837.56,-120.09
BPN,Blackpool North,53.82,-3.05,-1615.79,-3035.47
BPB,Blackpool Pleasure Beach,53.79,-3.05,-1619.49,-2991.55
BPS,Blackpool South,53.8,-3.05,-1615.62,-3005.08
BLK,Blackrod,53.59,-2.57,-1224.51,-2735.04
BAW,Blackwater,51.33,-0.78,237.46,211.64
BFF,Blaenau Ffestiniog,52.99,-3.94,-2341.12,-1956.6
BLA,Blair Atholl,56.77,-3.85,-2269.04,-6873.93
BAI,Blairhill,55.87,-4.04,-2425.59,-5701.71
BKT,Blake Street,52.6,-1.84,-633.51,-1448.47
BKD,Blakedown,52.41,-2.18,-903.84,-1189.34
BLT,Blantyre,55.8,-4.09,-2461.68,-5611.69
BLO,Blaydon,54.97,-1.71,-525.59,-4527.07
BSB,Bleasby,53.04,-0.94,102.51,-2018.05
BLY,Bletchley,52,-0.74,270.66,-653.61
BLX,Bloxwich,52.62,-2.01,-769.36,-1465.83
BWN,Bloxwich North,52.63,-2.02,-775.63,-1475.56
BLN,Blundellsands & Crosby,53.49,-3.04,-1608.12,-2599.64
BYB,Blythe Bridge,52.97,-2.07,-814.61,-1922.17
BOD,Bodmin Parkway,50.45,-4.66,-2931.92,1366.92
BOR,Bodorgan,53.2,-4.42,-2732.14,-2230.11
BOG,Bognor Regis,50.79,-0.68,319.71,922.65
BGS,Bogston,55.94,-4.71,-2971.41,-5793.57
BON,Bolton,53.57,-2.43,-1107.31,-2712.38
BTD,Bolton-on-Dearne,53.52,-1.31,-199.05,-2640.48
BKA,Bookham,51.29,-0.38,558,267.81
BOC,Bootle,54.29,-3.39,-1897.68,-3646.3
BNW,Bootle New Strand,53.45,-3,-1571.81,-2554.42
BOT,Bootle Oriel Road,53.45,-3,-1571.7,-2547.38
BBS,Bordesley,52.47,-1.88,-660.3,-1275.01
BRG,Borough Green & Wrotham,51.29,0.31,1120.99,261.97
BRH,Borth,52.49,-4.05,-2432.14,-1300
BOH,Bosham,50.84,-0.85,180.03,849.39
BSN,Boston,52.98,-0.03,845.91,-1935.15
BOE,Botley,50.92,-1.26,-155.48,752.81
BTF,Bottesford,52.95,-0.8,221.97,-1891.97
BNE,Bourne End,51.58,-0.71,291.74,-108.24
BMH,Bournemouth,50.73,-1.86,-649.03,999.62
BRV,Bournville,52.43,-1.93,-699.99,-1216.45
BWB,Bow Brickhill,52,-0.7,303.48,-665.3
BOP,Bowes Park,51.61,-0.12,773.51,-147.57
BWG,Bowling,55.93,-4.49,-2793.96,-5785.79
BXW,Boxhill & Westhumble,51.25,-0.33,603.29,313.09
BCE,Bracknell,51.41,-0.75,258.11,105.64
BDQ,Bradford Forster Square,53.8,-1.75,-558.52,-3002.88
BDI,Bradford Interchange,53.79,-1.75,-555.77,-2995.26
BOA,Bradford-on-Avon,51.34,-2.25,-965.81,194.56
BDN,Brading,50.68,-1.14,-57.54,1063.75
BTR,Braintree,51.88,0.56,1325.24,-497.21
BTP,Braintree Freeport,51.87,0.57,1334.01,-488.87
BML,Bramhall,53.36,-2.16,-892.32,-2433.1
BLE,Bramley,53.81,-1.64,-464.84,-3014.69
BMY,Bramley (Hants),51.33,-1.06,5.86,213.9
BMP,Brampton (Cumbria),54.93,-2.7,-1334.03,-4483.84
BRP,Brampton (Suffolk),52.4,1.54,2130.34,-1175.35
BCN,Branchton,55.94,-4.8,-3046.57,-5798.2
BND,Brandon,52.45,0.62,1380.73,-1251.73
BSM,Branksome,50.73,-1.92,-694.1,999.56
BYS,Braystones,54.44,-3.54,-2018.78,-3840.84
BDY,Bredbury,53.42,-2.11,-849.56,-2515.23
BRC,Breich,55.83,-3.67,-2120.52,-5650.48
BFD,Brentford,51.49,-0.31,619.13,8.15
BRE,Brentwood,51.61,0.3,1116.01,-155.87
BWO,Bricket Wood,51.71,-0.36,578.3,-275.56
BEA,Bridge of Allan,56.16,-3.96,-2356.31,-6079.91
BRO,Bridge of Orchy,56.52,-4.76,-3013.48,-6548.34
BGN,Bridgend,51.51,-3.58,-2044.81,-16.78
BDG,Bridgeton,55.85,-4.23,-2575.59,-5678.68
BWT,Bridgwater,51.13,-2.99,-1567.68,477.31
BDT,Bridlington,54.08,-0.2,709.12,-3377.41
BRF,Brierfield,53.82,-2.24,-953.25,-3038.89
BGG,Brigg,53.55,-0.49,474.72,-2679.79
BGH,Brighouse,53.7,-1.78,-580.11,-2874.15
BTN,Brighton,50.83,-0.14,756.02,867.37
BMD,Brimsdown,51.66,-0.03,845.88,-210.17
BNT,Brinnington,53.43,-2.13,-866.76,-2525.75
BPW,Bristol Parkway,51.51,-2.54,-1202.59,-25.72
BRI,Bristol Temple Meads,51.45,-2.58,-1234.13,58.64
BHD,Brithdir,51.71,-3.23,-1762.15,-281.91
RBS,British Steel Redcar,54.61,-1.11,-36.29,-4062.98
BNF,Briton Ferry,51.64,-3.82,-2243.8,-187.49
BRX,Brixton,51.46,-0.11,778.08,40.17
BGE,Broad Green,53.41,-2.89,-1488.71,-2493.34
BDB,Broadbottom,53.44,-2.02,-773.47,-2538.73
BSR,Broadstairs,51.36,1.43,2040.43,173.99
BCU,Brockenhurst,50.82,-1.57,-412.18,883.18
BHS,Brockholes,53.6,-1.77,-572.65,-2742.38
BCY,Brockley,51.46,-0.04,840.36,38.29
BOM,Bromborough,53.32,-2.99,-1565.64,-2383.37
BMR,Bromborough Rake,53.33,-2.99,-1567.02,-2393.9
BMC,Bromley Cross,53.61,-2.41,-1094.07,-2764.03
BMN,Bromley North,51.41,0.02,885.32,111.05
BMS,Bromley South,51.4,0.02,886.17,122.8
BMV,Bromsgrove,52.32,-2.05,-799.45,-1080.49
BSY,Brondesbury,51.55,-0.2,705.57,-67.19
BSP,Brondesbury Park,51.54,-0.21,699.52,-60.3
BPK,Brookmans Park,51.72,-0.2,704.37,-295.95
BKO,Brookwood,51.3,-0.64,352.69,248.22
BME,Broome,52.42,-2.89,-1481.98,-1210.99
BMF,Broomfleet,53.74,-0.67,322.02,-2928.84
BRA,Brora,58.01,-3.85,-2270.73,-8500.54
BUH,Brough,53.73,-0.58,398.61,-2912.01
BYF,Broughty Ferry,56.47,-2.87,-1472.14,-6484.84
BXB,Broxbourne,51.75,-0.01,862.16,-329.65
BCV,Bruce Grove,51.59,-0.07,814.25,-128.92
BDA,Brundall,52.62,1.44,2045.07,-1467.91
BGA,Brundall Gardens,52.62,1.42,2028.41,-1472.2
BSU,Brunstane,55.94,-3.1,-1657.96,-5800.71
BRW,Brunswick,53.38,-2.98,-1555.74,-2462.04
BRU,Bruton,51.11,-2.45,-1124.64,498.76
BYN,Bryn,53.5,-2.65,-1288.66,-2614.96
BUC,Buckenham,52.6,1.47,2070.41,-1439.16
BCK,Buckley,53.16,-3.06,-1621.22,-2176.3
BUK,Bucknell,52.36,-2.95,-1533.62,-1125.93
BGL,Bugle,50.4,-4.79,-3037.03,1426.79
BHR,Builth Road,52.17,-3.43,-1923.9,-880.48
BLW,Bulwell,53,-1.2,-104.45,-1963.31
BUE,Bures,51.97,0.77,1498.4,-621.85
BUG,Burgess Hill,50.95,-0.13,766.99,704.81
BUY,Burley Park,53.81,-1.58,-415.75,-3022.76
BUW,Burley-in-Wharfedale,53.91,-1.75,-558.97,-3148.22
BNA,Burnage,53.42,-2.22,-935.47,-2513.87
BUD,Burneside,54.36,-2.77,-1384.93,-3731
BNM,Burnham,51.52,-0.65,344.02,-38.33
BUU,Burnham-on-Crouch,51.63,0.81,1535.14,-181.98
BUB,Burnley Barracks,53.79,-2.26,-970.43,-2995.47
BNC,Burnley Central,53.79,-2.24,-959.8,-2998.43
BYM,Burnley Manchester Road,53.78,-2.25,-962.97,-2987.29
BUI,Burnside,55.82,-4.2,-2557.57,-5637.14
BTS,Burntisland,56.06,-3.23,-1765.79,-5950.1
BCB,Burscough Bridge,53.61,-2.84,-1446.52,-2752.88
BCJ,Burscough Junction,53.6,-2.84,-1445.18,-2743.52
BUO,Bursledon,50.88,-1.31,-193.39,795.09
BUJ,Burton Joyce,52.98,-1.04,22.39,-1942.93
BUT,Burton-on-Trent,52.81,-1.64,-468.39,-1710.49
BSE,Bury St Edmunds,52.25,0.71,1452.98,-990.61
BUS,Busby,55.78,-4.26,-2605.05,-5589.23
BHK,Bush Hill Park,51.64,-0.07,814.75,-192.23
BSH,Bushey,51.65,-0.39,556.93,-197.74
BUL,Butlers Lane,52.59,-1.84,-627.88,-1432.28
BXD,Buxted,50.99,0.13,978.41,657.35
BUX,Buxton,53.26,-1.91,-688.94,-2303.69
BFN,Byfleet & New Haw,51.35,-0.48,478.58,188.18
BYE,Bynea,51.67,-4.1,-2471.86,-232.01
CAD,Cadoxton,51.41,-3.25,-1778.61,106.71
CGW,Caergwrle,53.11,-3.03,-1602.45,-2104.36
CPH,Caerphilly,51.57,-3.22,-1753.8,-101.01
CWS,Caersws,52.52,-3.43,-1928.35,-1332.72
CDT,Caldicot,51.58,-2.76,-1380.33,-118.24
CIR,Caledonian Rd & Barnsbury,51.54,-0.12,777.25,-64.21
CSK,Calstock,50.5,-4.21,-2561.42,1299.49
CDU,Cam & Dursley,51.72,-2.36,-1052.88,-291.45
CAM,Camberley,51.34,-0.74,263.85,205.58
CBN,Camborne,50.21,-5.3,-3449.42,1673.93
CBG,Cambridge,52.19,0.14,983.39,-913.41
CBH,Cambridge Heath,51.53,-0.06,824.49,-49.38
CBL,Cambuslang,55.82,-4.17,-2532.3,-5640.44
CMD,Camden Road,51.54,-0.14,757.2,-62.38
CMO,Camelon,56.01,-3.82,-2242.43,-5883.61
CNL,Canley,52.4,-1.55,-391,-1180.31
CAO,Cannock,52.69,-2.02,-778.06,-1554.45
CNN,Canonbury,51.55,-0.09,796.24,-70.76
CBE,Canterbury East,51.27,1.08,1748.77,286.67
CBW,Canterbury West,51.28,1.08,1748.22,273.63
CNY,Cantley,52.58,1.51,2105.55,-1414.4
CPU,Capenhurst,53.26,-2.94,-1528.53,-2302.97
CBB,Carbis Bay,50.2,-5.46,-3585.27,1691.24
CDD,Cardenden,56.14,-3.26,-1788.99,-6059.87
CDB,Cardiff Bay,51.47,-3.17,-1711.34,35.21
CDF,Cardiff Central,51.48,-3.18,-1721.85,23.58
CDQ,Cardiff Queen Street,51.48,-3.17,-1714.42,15.84
CDO,Cardonald,55.85,-4.34,-2669.06,-5683.41
CDR,Cardross,55.96,-4.65,-2923.84,-5824
CRF,Carfin,55.81,-3.96,-2355.52,-5624.44
CAK,Cark,54.18,-2.97,-1553.44,-3499.23
CAR,Carlisle,54.89,-2.93,-1521.62,-4429.08
CTO,Carlton,52.96,-1.08,-9.04,-1918.01
CLU,Carluke,55.73,-3.85,-2267.98,-5525.24
CMN,Carmarthen,51.85,-4.31,-2640.76,-468.46
CML,Carmyle,55.83,-4.16,-2520.2,-5659.65
CNF,Carnforth,54.13,-2.77,-1389.01,-3436.8
CAN,Carnoustie,56.5,-2.71,-1336.3,-6528.4
CAY,Carntyne,55.86,-4.18,-2536.91,-5686.65
CPK,Carpenders Park,51.63,-0.39,556.43,-175.05
CAG,Carrbridge,57.28,-3.83,-2250.92,-7544.2
CSH,Carshalton,51.37,-0.17,735.51,163.85
CSB,Carshalton Beeches,51.36,-0.17,732.72,178.26
CRS,Carstairs,55.69,-3.67,-2120.8,-5472.79
CDY,Cartsdyke,55.94,-4.73,-2987.88,-5800.31
CBP,Castle Bar Park,51.52,-0.33,600.91,-37.64
CLC,Castle Cary,51.1,-2.52,-1186.4,514.18
CFD,Castleford,53.72,-1.35,-233.66,-2907.9
CAS,Castleton,53.59,-2.18,-905.37,-2735.47
CSM,Castleton Moor,54.47,-0.95,99.11,-3877.02
CAT,Caterham,51.28,-0.08,807.34,276.41
CTF,Catford,51.44,-0.03,849.74,64.81
CFB,Catford Bridge,51.44,-0.02,850.93,64.37
CYS,Cathays,51.49,-3.18,-1721.34,6.79
CCT,Cathcart,55.82,-4.26,-2603.69,-5637.91
CTL,Cattal,54,-1.32,-205.21,-3264.41
CAU,Causeland,50.41,-4.47,-2771.67,1419.31
CYB,Cefn-y-Bedd,53.1,-3.03,-1600.94,-2092.54
CTH,Chadwell Heath,51.57,0.13,976.39,-96.41
CFH,Chafford Hundred,51.49,0.29,1105.47,11.04
CFO,Chalfont & Latimer,51.67,-0.56,414.04,-226.89
CHW,Chalkwell,51.54,0.67,1418.15,-58.17
CFR,Chandlers Ford,50.98,-1.38,-257.92,666.49
CEF,Chapel-en-le-Frith,53.31,-1.92,-693.75,-2370.85
CPN,Chapelton,51.02,-4.02,-2411.08,623.69
CLN,Chapeltown,53.46,-1.47,-324.69,-2566.59
CWC,Chappel & Wakes Colne,51.93,0.76,1489.85,-563.08
CHG,Charing,51.21,0.79,1515.81,372.95
CHC,Charing Cross (Glasgow),55.86,-4.27,-2611.26,-5699.21
CBY,Charlbury,51.87,-1.49,-343.8,-493.34
CTN,Charlton,51.49,0.03,896.47,9.45
CRT,Chartham,51.26,1.02,1701.53,308.84
CSR,Chassen Road,53.45,-2.37,-1060.33,-2545.5
CTE,Chatelherault,55.77,-4,-2395,-5569.51
CTM,Chatham,51.38,0.52,1296.26,148.31
CHT,Chathill,55.54,-1.71,-520.52,-5271.58
CHU,Cheadle Hulme,53.38,-2.19,-913.58,-2453.91
CHE,Cheam,51.36,-0.21,696.53,180.78
CED,Cheddington,51.86,-0.66,331.15,-474.41
CEL,Chelford,53.27,-2.28,-988.05,-2316.89
CHM,Chelmsford,51.74,0.47,1253.37,-315.92
CLD,Chelsfield,51.36,0.11,960.17,179.76
CNM,Cheltenham Spa,51.9,-2.1,-841.25,-525.89
CPW,Chepstow,51.64,-2.67,-1308.01,-190.47
CYT,Cherry Tree,53.73,-2.52,-1182.8,-2919.36
CHY,Chertsey,51.39,-0.51,455.52,139.46
CHN,Cheshunt,51.7,-0.02,851.67,-272.23
CSN,Chessington North,51.36,-0.3,626.19,169.32
CSS,Chessington South,51.36,-0.31,619.87,179.38
CTR,Chester,53.2,-2.88,-1477.83,-2220.36
CRD,Chester Road,52.54,-1.83,-623.37,-1358.18
CHD,Chesterfield,53.24,-1.42,-287.04,-2274.35
CLS,Chester-le-Street,54.85,-1.58,-415.83,-4382.08
CSW,Chestfield & Swalecliffe,51.36,1.07,1742.02,174.45
CNO,Chetnole,50.87,-2.57,-1228.19,818.42
CCH,Chichester,50.83,-0.78,233.6,863.34
CIL,Chilham,51.24,0.98,1667.16,325.34
CHL,Chilworth,51.22,-0.52,443.16,363.69
CHI,Chingford,51.63,0.01,879.28,-181.23
CLY,Chinley,53.34,-1.94,-714.65,-2407.44
CPM,Chippenham,51.46,-2.12,-854.12,41.24
CHP,Chipstead,51.31,-0.17,733.01,240.97
CRK,Chirk,52.93,-3.07,-1629.15,-1876.45
CIT,Chislehurst,51.41,0.06,918.04,115.47
CHK,Chiswick,51.48,-0.27,652.75,16.91
CHO,Cholsey,51.57,-1.16,-73.28,-99.22
CRL,Chorley,53.65,-2.63,-1271.2,-2814.61
CLW,Chorleywood,51.65,-0.52,448.47,-208.82
CHR,Christchurch,50.74,-1.78,-584.28,985.71
CHH,Christs Hospital,51.05,-0.36,574.69,578.24
CTW,Church & Oswaldtwistle,53.75,-2.39,-1078.83,-2942.14
CHF,Church Fenton,53.83,-1.23,-129.9,-3041.23
CTT,Church Stretton,52.54,-2.8,-1415.5,-1360.49
CIM,Cilmeri,52.15,-3.46,-1947.97,-855.97
CTK,City Thameslink,51.51,-0.1,786.72,-25.86
CLT,Clacton on Sea,51.79,1.15,1812.49,-391.07
CLA,Clandon,51.26,-0.5,461.15,300.06
CLP,Clapham High Street,51.47,-0.13,763.12,37.33
CLJ,Clapham Junction,51.46,-0.17,732.35,39.02
CPY,Clapham (North Yorkshire),54.11,-2.41,-1094.27,-3405.12
CPT,Clapton,51.56,-0.06,824.7,-88.07
CLR,Clarbeston Road,51.85,-4.88,-3111.84,-466.26
CKS,Clarkston,55.79,-4.28,-2616.01,-5600.98
CLV,Claverdon,52.28,-1.7,-512.52,-1021.02
CLG,Claygate,51.36,-0.35,587.18,173.3
CLE,Cleethorpes,53.56,-0.03,847.37,-2696.43
CEA,Cleland,55.8,-3.91,-2317.99,-5620.93
CLI,Clifton,53.52,-2.31,-1016.22,-2644.67
CFN,Clifton Down,51.46,-2.61,-1258.94,38.55
CLH,Clitheroe,53.87,-2.39,-1081.62,-3102.7
CLK,Clock House,51.41,-0.04,838.05,111.52
CUW,Clunderwen,51.84,-4.73,-2988.12,-451.75
CYK,Clydebank,55.9,-4.4,-2720.88,-5746.16
CBC,Coatbridge Central,55.86,-4.03,-2417.62,-5697.24
CBS,Coatbridge Sunnyside,55.87,-4.03,-2414.26,-5702.13
COA,Coatdyke,55.86,-4,-2395.25,-5698.77
CSD,Cobham & Stoke d'Abernon,51.32,-0.39,553.66,229.52
CSL,Codsall,52.63,-2.2,-924.56,-1477.68
CGN,Cogan,51.45,-3.19,-1729.83,62.75
COL,Colchester,51.9,0.89,1599.91,-530.08
CET,Colchester Town,51.89,0.9,1608.62,-511.71
CEH,Coleshill Parkway,52.52,-1.71,-521.99,-1333.24
CLM,Collingham,53.14,-0.75,259.19,-2151.6
CLL,Collington,50.84,0.46,1244.65,853.9
CNE,Colne,53.85,-2.18,-907.76,-3078.4
CWL,Colwall,52.08,-2.36,-1051.14,-763.84
CWB,Colwyn Bay,53.3,-3.73,-2167.26,-2350.16
CME,Combe,51.83,-1.39,-264.85,-441.06
COM,Commondale,54.48,-0.97,76,-3895.98
CNG,Congleton,53.16,-2.19,-917.07,-2169.55
CNS,Conisbrough,53.49,-1.23,-135.52,-2601.76
CON,Connel Ferry,56.45,-5.39,-3521.15,-6465.52
CEY,Cononley,53.92,-2.01,-769.16,-3159.8
CNP,Conway Park,53.39,-3.02,-1594.1,-2476.64
CNW,Conwy,53.28,-3.83,-2252.99,-2328.96
COB,Cooden Beach,50.83,0.43,1219.36,861.61
COO,Cookham,51.56,-0.72,282.27,-82.61
CBR,Cooksbridge,50.9,-0.01,863.7,769.83
COE,Coombe Junction Halt,50.45,-4.48,-2784.27,1367.43
COP,Copplestone,50.81,-3.75,-2188.61,886.27
CRB,Corbridge,54.97,-2.02,-775.13,-4527.74
COR,Corby,0,0,871.2,67148.32
CKH,Corkerhill,55.84,-4.33,-2663.84,-5663.76
CKL,Corkickle,54.54,-3.58,-2050.41,-3974.03
CPA,Corpach,56.84,-5.12,-3306.26,-6974.7
CRR,Corrour,56.76,-4.69,-2954.45,-6866.98
COY,Coryton,51.52,-3.23,-1764.44,-34.24
CSY,Coseley,52.55,-2.09,-829.96,-1370.48
COS,Cosford,52.64,-2.31,-1009.73,-1500.72
CSA,Cosham,50.84,-1.07,0.51,850.24
CGM,Cottingham,53.78,-0.41,539.72,-2982.97
COT,Cottingley,53.77,-1.59,-423.73,-2964.94
CDS,Coulsdon South,51.32,-0.14,758.74,232.47
COV,Coventry,52.4,-1.51,-363.18,-1182.36
CWN,Cowden,51.16,0.11,960.95,441.38
COW,Cowdenbeath,56.11,-3.34,-1855.5,-6021.83
CRA,Cradley Heath,52.47,-2.09,-833.8,-1272.12
CGD,Craigendoran,55.99,-4.71,-2971.28,-5868.87
CRM,Cramlington,55.09,-1.6,-432.62,-4686.13
CRV,Craven Arms,52.44,-2.84,-1442.7,-1236.06
CRW,Crawley,51.11,-0.19,718.95,498
CRY,Crayford,51.45,0.18,1017.04,59.7
CDI,Crediton,50.78,-3.65,-2103.2,926.73
CES,Cressing,51.85,0.58,1342.59,-467.14
CSG,Cressington,53.36,-2.91,-1503.83,-2431.51
CWD,Creswell,53.26,-1.22,-120.47,-2307.99
CRE,Crewe,53.09,-2.43,-1113.14,-2080.57
CKN,Crewkerne,50.87,-2.78,-1394.93,811.19
CWH,Crews Hill,51.68,-0.11,784.03,-248.25
CNR,Crianlarich,56.39,-4.62,-2895.58,-6384.84
CCC,Criccieth,52.92,-4.24,-2584.93,-1857.31
CRI,Cricklewood,51.56,-0.21,698.1,-84.25
CFF,Croftfoot,55.82,-4.23,-2577.42,-5638.68
CFT,Crofton Park,51.46,-0.04,841.43,50.75
CMR,Cromer,52.93,1.29,1925.64,-1872.54
CMF,Cromford,53.11,-1.55,-391.99,-2110.96
CKT,Crookston,55.84,-4.37,-2689.66,-5669.89
CRG,Cross Gates,53.8,-1.45,-311.66,-3013.29
CFL,Crossflatts,53.86,-1.84,-633.49,-3083.14
COI,Crosshill,55.83,-4.26,-2600.65,-5658.26
CKY,Crosskeys,51.62,-3.13,-1678.52,-165.33
CMY,Crossmyloof,55.83,-4.28,-2623.08,-5659.13
CSO,Croston,53.67,-2.78,-1394.33,-2834.19
CRH,Crouch Hill,51.57,-0.12,775.83,-100.6
COH,Crowborough,51.05,0.19,1024.55,583.84
CWU,Crowhurst,50.89,0.5,1280.11,789.62
CWE,Crowle,53.59,-0.82,204.56,-2732.72
CRN,Crowthorne,51.37,-0.82,203,166.1
CRO,Croy,55.96,-4.04,-2420.53,-5817.87
CYP,Crystal Palace,51.42,-0.07,811.98,99.1
CUD,Cuddington,53.24,-2.6,-1248.79,-2276.55
CUF,Cuffley,51.71,-0.11,781.67,-279.85
CUM,Culham,51.65,-1.24,-137.3,-208.23
CUA,Culrain,57.92,-4.4,-2720.93,-8378.7
CUB,Cumbernauld,55.94,-3.98,-2375.15,-5800.07
CUP,Cupar,56.32,-3.01,-1582.74,-6289.01
CUH,Curriehill,55.9,-3.32,-1835.57,-5746.01
CUX,Cuxton,51.37,0.46,1247.77,156.72
CMH,Cwmbach,51.7,-3.41,-1913.04,-270.99
CWM,Cwmbran,51.66,-3.02,-1588.83,-211.86
CYN,Cynghordy,52.05,-3.75,-2185.86,-726.85
DDK,Dagenham Dock,51.53,0.15,989.5,-41.97
DSY,Daisy Hill,53.54,-2.52,-1180.74,-2667.14
DAG,Dalgety Bay,56.04,-3.37,-1875.51,-5930.56
DAL,Dalmally,56.4,-4.98,-3193.38,-6398.81
DAK,Dalmarnock,55.84,-4.22,-2568.76,-5669.74
DAM,Dalmeny,55.99,-3.38,-1886.85,-5857.82
DMR,Dalmuir,55.91,-4.43,-2739.2,-5760.82
DLR,Dalreoch,55.95,-4.58,-2862.49,-5807.09
DLY,Dalry,55.71,-4.71,-2971.15,-5492.58
DLS,Dalston,54.85,-2.99,-1566.51,-4371.09
DLK,Dalston Kingsland,51.55,-0.08,809.41,-70.65
DLT,Dalton,54.15,-3.18,-1721.6,-3468.81
DLW,Dalwhinnie,56.94,-4.25,-2592,-7095.13
DNY,Danby,54.47,-0.91,128.42,-3875.91
DCT,Danescourt,51.5,-3.23,-1766.39,-8.34
DZY,Danzey,52.32,-1.82,-614.2,-1082.67
DAR,Darlington,54.52,-1.55,-390.8,-3946.35
DAN,Darnall,53.38,-1.41,-279.33,-2460.65
DSM,Darsham,52.27,1.52,2113.75,-1015.69
DFD,Dartford,51.45,0.22,1050.03,60.95
DRT,Darton,53.59,-1.53,-378.02,-2730.93
DWN,Darwen,53.7,-2.46,-1139.21,-2873.93
DAT,Datchet,51.48,-0.58,398.63,14.38
DVN,Davenport,53.39,-2.15,-884.44,-2473.32
DWL,Dawlish,50.58,-3.46,-1954.57,1190.95
DWW,Dawlish Warren,50.6,-3.44,-1937.74,1167.16
DEA,Deal,51.22,1.4,2012.11,353.47
DEN,Dean,51.04,-1.63,-462.15,589.25
DNN,Dean Lane,53.5,-2.18,-908.75,-2620.59
DGT,Deansgate,53.47,-2.25,-964.77,-2581.9
DGY,Deganwy,53.29,-3.83,-2255.32,-2348.05
DHN,Deighton,53.67,-1.75,-557.89,-2835.87
DLM,Delamere,53.23,-2.67,-1303.65,-2262.02
DBD,Denby Dale,53.57,-1.66,-485.31,-2710.41
DNM,Denham,51.58,-0.5,465.5,-110.48
DGC,Denham Golf Club,51.58,-0.52,448.9,-112.78
DMK,Denmark Hill,51.47,-0.09,798.32,33.78
DNT,Dent,54.28,-2.36,-1056.55,-3635.95
DTN,Denton,53.46,-2.13,-866.21,-2559.51
DEP,Deptford,51.48,-0.03,849.78,19.9
DBY,Derby,52.92,-1.46,-322.08,-1854.38
DBR,Derby Road,52.05,1.18,1835.78,-725.63
DKR,Derker,53.55,-2.1,-842.44,-2680.49
DPT,Devonport,50.38,-4.17,-2531.09,1455.15
DEW,Dewsbury,53.69,-1.63,-461.07,-2866.18
DID,Didcot Parkway,51.61,-1.24,-142.5,-152.37
DIG,Digby & Sowton,50.71,-3.47,-1962.1,1017.65
DMH,Dilton Marsh,51.25,-2.21,-929.17,320.94
DNS,Dinas Powys,51.43,-3.22,-1753.7,81.43
DMG,Dinas Rhondda,51.62,-3.44,-1932.47,-161.33
DGL,Dingle Road,51.44,-3.18,-1722.91,70.49
DIN,Dingwall,57.59,-4.42,-2735.44,-7954.33
DND,Dinsdale,54.51,-1.47,-325.34,-3938.89
DTG,Dinting,53.45,-1.97,-735.78,-2549.63
DSL,Disley,53.36,-2.04,-794.64,-2430.77
DIS,Diss,52.37,1.12,1787.7,-1146.95
DOC,Dockyard,50.38,-4.18,-2534.68,1449.87
DOD,Dodworth,53.54,-1.53,-377.43,-2673.27
DOL,Dolau,52.3,-3.26,-1790.61,-1044.83
DLH,Doleham,50.92,0.61,1369.29,750.27
DLG,Dolgarrog,53.19,-3.82,-2246.56,-2206.7
DWD,Dolwyddelan,53.05,-3.89,-2297.52,-2031.53
DON,Doncaster,53.52,-1.14,-58.78,-2643.71
DCH,Dorchester South,50.71,-2.44,-1116.62,1023.42
DCW,Dorchester West,50.71,-2.44,-1120.94,1021.25
DOR,Dore,53.33,-1.52,-364.8,-2390.7
DKG,Dorking,51.24,-0.32,606.75,330.15
DPD,Dorking Deepdene,51.24,-0.32,606.43,332.92
DKT,Dorking West,51.24,-0.34,593.92,336.29
DMS,Dormans,51.16,0,867.69,441.18
DDG,Dorridge,52.37,-1.75,-558.47,-1144.88
DVH,Dove Holes,53.3,-1.89,-670.64,-2354.64
DVP,Dover Priory,51.13,1.31,1935.81,480.41
DVC,Dovercourt,51.94,1.28,1915.68,-579.81
DVY,Dovey Junction,52.56,-3.92,-2329.14,-1395.62
DOW,Downham Market,52.6,0.37,1169.46,-1447.46
DRG,Drayton Green,51.52,-0.33,602.35,-28.58
DYP,Drayton Park,51.55,-0.11,784.99,-76.91
DRM,Drem,56.01,-2.79,-1401.1,-5882.35
DRF,Driffield,54,-0.43,516.68,-3269.69
DRI,Drigg,54.38,-3.44,-1937.25,-3759.24
DTW,Droitwich Spa,52.27,-2.16,-889.17,-1009.43
DRO,Dronfield,53.3,-1.47,-326.73,-2356.69
DMC,Drumchapel,55.9,-4.36,-2687.16,-5751.54
DFR,Drumfrochar,55.94,-4.77,-3023.09,-5799.05
DRU,Drumgelloch,55.87,-3.95,-2353.75,-5700.72
DMY,Drumry,55.9,-4.39,-2705.59,-5751.25
DFP,Dublin Ferryport,0,0,871.2,67148.32
DPS,Dublin Port - Stena,0,0,871.2,67148.32
DUD,Duddeston,52.49,-1.87,-655.1,-1296.52
DDP,Dudley Port,52.52,-2.05,-800.36,-1343.84
DFI,Duffield,52.99,-1.49,-340.81,-1947.7
DRN,Duirinish,57.32,-5.69,-3771.2,-7596.16
DST,Duke Street,55.86,-4.21,-2564.95,-5691.06
DUL,Dullingham,52.2,0.37,1170.26,-922.65
DBC,Dumbarton Central,55.95,-4.57,-2853.57,-5806.1
DBE,Dumbarton East,55.94,-4.55,-2843.14,-5800.36
DUM,Dumbreck,55.85,-4.3,-2636.64,-5673.58
DMF,Dumfries,55.07,-3.6,-2068.47,-4666.29
DMP,Dumpton Park,51.35,1.43,2034.11,193.52
DUN,Dunbar,56,-2.51,-1178.69,-5873.45
DBL,Dunblane,56.19,-3.97,-2363.05,-6118.06
DCG,Duncraig,57.34,-5.64,-3726.28,-7619.24
DEE,Dundee,56.46,-2.97,-1552.11,-6470.92
DFL,Dunfermline Queen Margaret,56.08,-3.42,-1919.35,-5980.74
DFE,Dunfermline Town,56.07,-3.45,-1944.68,-5964.59
DKD,Dunkeld & Birnam,56.56,-3.58,-2047.34,-6602.06
DNL,Dunlop,55.71,-4.53,-2825.4,-5499.96
DNO,Dunrobin Castle,57.99,-3.95,-2349.97,-8464.9
DOT,Dunston,54.95,-1.64,-467.23,-4506.55
DNG,Dunton Green,51.3,0.17,1010.63,257.7
DHM,Durham,54.78,-1.58,-418.88,-4284.01
DUR,Durrington-on-Sea,50.82,-0.41,535.61,882.27
DYC,Dyce,57.21,-2.19,-916.86,-7447.84
DYF,Dyffryn Ardudwy,52.79,-4.1,-2476.56,-1688.36
EAG,Eaglescliffe,54.53,-1.35,-229.4,-3958.06
EAL,Ealing Broadway,51.51,-0.3,625.09,-27.04
ERL,Earlestown,53.45,-2.64,-1280.08,-2551.98
EAR,Earley,51.44,-0.92,122.49,69.13
EAD,Earlsfield,51.44,-0.19,717.5,67.96
ELD,Earlswood (Surrey),51.23,-0.17,731.88,347.89
EWD,Earlswood (West Midlands),52.37,-1.86,-646.77,-1137.72
ECR,East Croydon,51.38,-0.09,795.94,155.31
EDY,East Didsbury,53.41,-2.22,-941.06,-2497.44
EDW,East Dulwich,51.46,-0.08,805.37,42.76
EFL,East Farleigh,51.26,0.48,1266.55,311.5
EGF,East Garforth,53.79,-1.37,-246.43,-2996.62
EGR,East Grinstead,51.13,-0.02,856.6,479.67
EKL,East Kilbride,55.77,-4.18,-2538.19,-5570.54
EML,East Malling,51.29,0.44,1229.48,271.63
EMD,East Midlands Parkway,0,0,871.2,67148.32
ETL,East Tilbury,51.48,0.41,1207.99,12.1
EWR,East Worthing,50.82,-0.35,581.76,876.9
EBN,Eastbourne,50.77,0.28,1100.59,945.06
EBK,Eastbrook,51.44,-3.21,-1743.73,73.64
EST,Easterhouse,55.86,-4.11,-2478.6,-5692.78
ERA,Eastham Rake,53.31,-2.98,-1560.24,-2364.79
ESL,Eastleigh,50.97,-1.35,-229.93,684.43
EGN,Eastrington,53.76,-0.79,228.81,-2948.43
EBD,Ebbsfleet International Domestic,0,0,871.2,67148.32
EBV,Ebbw Vale Parkway,51.76,-3.2,-1735.55,-343
ECC,Eccles,53.49,-2.33,-1032.83,-2596.6
ECS,Eccles Road,52.47,0.97,1662.27,-1273.74
ECL,Eccleston Park,53.43,-2.78,-1396.2,-2525.44
EDL,Edale,53.36,-1.82,-610.2,-2439.39
EDN,Eden Park,51.39,-0.03,849.5,134.7
EBR,Edenbridge,51.21,0.06,920.67,372.53
EBT,Edenbridge Town,51.2,0.07,925.99,383.42
EDG,Edge Hill,53.4,-2.95,-1531.96,-2488.71
EDP,Edinburgh Park,55.93,-3.31,-1826.53,-5781.2
EDB,Edinburgh Waverley,55.95,-3.19,-1729.11,-5813.59
EDR,Edmonton Green,51.62,-0.06,821.36,-170.6
EFF,Effingham Junction,51.29,-0.42,528.68,264.21
EGG,Eggesford,50.89,-3.87,-2289.07,790.72
EGH,Egham,51.43,-0.55,425.47,84.06
EGT,Egton,54.44,-0.76,249.78,-3838.41
EPH,Elephant & Castle,51.49,-0.1,790.04,0.03
ELG,Elgin,57.64,-3.31,-1829.45,-8018.02
ELP,Ellesmere Port,53.28,-2.9,-1491.13,-2331.68
ELE,Elmers End,51.4,-0.05,830.89,124.93
ESD,Elmstead Woods,51.42,0.04,907.32,100.4
ESW,Elmswell,52.24,0.91,1615.52,-970.1
ELR,Elsecar,53.5,-1.43,-293,-2613.96
ESM,Elsenham,51.92,0.23,1057.22,-556.08
ELS,Elstree & Borehamwood,51.65,-0.28,643,-207.04
ELW,Eltham,51.46,0.05,913.89,50.15
ELO,Elton & Orston,52.95,-0.86,173.56,-1900.94
ELY,Ely,52.39,0.27,1088.83,-1169.87
EMP,Emerson Park,51.57,0.22,1051.16,-97.59
EMS,Emsworth,50.85,-0.94,105.53,838.12
ENC,Enfield Chase,51.65,-0.09,797.22,-206.88
ENL,Enfield Lock,51.67,-0.03,848.09,-230.51
ENF,Enfield Town,51.65,-0.08,808.03,-205.66
ENT,Entwistle,53.66,-2.41,-1098.11,-2819.09
EPS,Epsom,51.33,-0.27,651.98,208.27
EPD,Epsom Downs,51.32,-0.24,676.31,222.23
ERD,Erdington,52.53,-1.84,-628.92,-1348.81
ERI,Eridge,51.09,0.2,1035.5,528.32
ERH,Erith,51.48,0.17,1013.63,16.21
ESH,Esher,51.38,-0.35,583.03,148.94
EXR,Essex Road,51.54,-0.1,792.68,-60.77
ETC,Etchingham,51.01,0.44,1232,630.57
EBA,Euxton Balshaw Lane,53.67,-2.68,-1310.54,-2837.46
EVE,Evesham,52.1,-1.95,-717.03,-788
EWE,Ewell East,51.35,-0.24,674.21,194.05
EWW,Ewell West,51.35,-0.26,661.6,187.86
EXC,Exeter Central,50.73,-3.53,-2010.27,1000.93
EXD,Exeter St David's,50.73,-3.54,-2019.01,997.51
EXT,Exeter St Thomas,50.72,-3.54,-2015.88,1013.93
EXG,Exhibition Centre,55.86,-4.28,-2622.49,-5695.12
EXM,Exmouth,50.62,-3.41,-1914.07,1137.73
EXN,Exton,50.67,-3.44,-1937.82,1076.87
EYN,Eynsford,51.36,0.2,1037.91,171.33
FLS,Failsworth,53.51,-2.16,-892.79,-2629.54
FRB,Fairbourne,52.7,-4.05,-2431.51,-1567.34
FRF,Fairfield,53.47,-2.14,-877.92,-2578.47
FRL,Fairlie,55.75,-4.85,-3087.12,-5552.19
FRW,Fairwater,51.49,-3.23,-1766.33,0.26
FCN,Falconwood,51.46,0.08,935.27,45.6
FKG,Falkirk Grahamston,56,-3.79,-2215.88,-5879.07
FKK,Falkirk High,55.99,-3.79,-2221.75,-5864.99
FOC,Falls of Cruachan,56.39,-5.11,-3298.52,-6389.28
FMR,Falmer,50.86,-0.09,799.93,824.11
FAL,Falmouth Docks,50.15,-5.06,-3252.54,1751.82
FMT,Falmouth Town,50.15,-5.07,-3260.04,1754.85
FRM,Fareham,50.85,-1.19,-101.03,835.98
FNB,Farnborough (Main),51.3,-0.76,254.83,257.55
FNN,Farnborough North,51.3,-0.74,265.19,250.45
FNC,Farncombe,51.2,-0.6,378.13,387.24
FNH,Farnham,51.21,-0.79,224.89,368
FNR,Farningham Road,51.4,0.24,1063.29,120.9
FNW,Farnworth,53.55,-2.39,-1076.33,-2680.9
ZFD,Farringdon,51.52,-0.11,785.53,-34.45
FLD,Fauldhouse,55.82,-3.72,-2162.27,-5644.17
FAV,Faversham,51.31,0.89,1597.95,237.85
FGT,Faygate,51.1,-0.26,656.68,519.29
FAZ,Fazakerley,53.47,-2.94,-1522.96,-2574.97
FRN,Fearn,57.78,-3.99,-2386.09,-8194.32
FEA,Featherstone,53.68,-1.36,-237.56,-2848.74
FLX,Felixstowe,51.97,1.35,1972.63,-616.76
FEL,Feltham,51.45,-0.41,536.94,60.26
FNT,Feniton,50.79,-3.29,-1808.34,922.8
FEN,Fenny Stratford,52,-0.72,285.87,-659.55
FER,Fernhill,51.69,-3.4,-1898.49,-250.87
FRY,Ferriby,53.72,-0.51,457.02,-2898.87
FYS,Ferryside,51.77,-4.37,-2692.55,-357.63
FFA,Ffairfach,51.87,-3.99,-2385.4,-493.39
FIL,Filey,54.21,-0.29,631.54,-3541.35
FIT,Filton Abbey Wood,51.5,-2.56,-1218.72,-14.12
FNY,Finchley Road & Frognal,51.55,-0.18,721.83,-73.23
FPK,Finsbury Park,51.56,-0.11,785.03,-92.16
FIN,Finstock,51.85,-1.47,-327.2,-467.72
FSB,Fishbourne (Sussex),50.84,-0.82,206.41,854.21
FSG,Fishersgate,50.83,-0.22,692.25,860.49
FGH,Fishguard Harbour,52.01,-4.99,-3195.11,-674.75
FSK,Fiskerton,53.06,-0.91,127.22,-2042.31
FZW,Fitzwilliam,53.63,-1.37,-249.11,-2788.47
FWY,Five Ways,52.47,-1.91,-689,-1274
FLE,Fleet,51.29,-0.83,193.59,265.33
FLM,Flimby,54.69,-3.52,-2000.57,-4167.03
FLN,Flint,53.25,-3.13,-1684.08,-2289.08
FLT,Flitwick,52,-0.5,467.26,-664.44
FLI,Flixton,53.44,-2.38,-1073.09,-2542.62
FLF,Flowery Field,53.46,-2.08,-825.93,-2565.66
FKC,Folkestone Central,51.08,1.17,1825.04,536.24
FKW,Folkestone West,51.08,1.15,1812.33,534.02
FOD,Ford,50.83,-0.58,399.28,866.57
FOG,Forest Gate,51.55,0.02,891.07,-72.15
FOH,Forest Hill,51.44,-0.05,827.72,71.96
FBY,Formby,53.55,-3.07,-1633.44,-2685.43
FOR,Forres,57.61,-3.63,-2086.13,-7974.84
FRS,Forsinard,58.36,-3.9,-2307.1,-8949.06
FTM,Fort Matilda,55.96,-4.8,-3039.81,-5822.24
FTW,Fort William,56.82,-5.11,-3293.36,-6945.51
FOK,Four Oaks,52.58,-1.83,-619.75,-1415.73
FOX,Foxfield,54.26,-3.22,-1751.83,-3605.11
FXN,Foxton,52.12,0.06,917.31,-815.03
FRT,Frant,51.1,0.29,1111.44,508.68
FTN,Fratton,50.8,-1.07,-4.74,909.91
FRE,Freshfield,53.57,-3.07,-1634.19,-2701.83
FFD,Freshford,51.34,-2.3,-1005.51,198.32
FML,Frimley,51.31,-0.75,261.95,237.65
FRI,Frinton on Sea,51.84,1.24,1885.14,-448.03
FZH,Frizinghall,53.82,-1.77,-571.29,-3032.34
FRD,Frodsham,53.3,-2.72,-1349.77,-2349.51
FRO,Frome,51.23,-2.31,-1012.85,347.97
FLW,Fulwell,51.43,-0.35,586.17,78.46
FNV,Furness Vale,53.35,-1.99,-750.9,-2418.47
FZP,Furze Platt,51.53,-0.73,277.06,-50.74
GNB,Gainsborough Central,53.4,-0.77,243.43,-2484.77
GBL,Gainsborough Lea Road,53.39,-0.77,244.34,-2467.17
GCH,Garelochhead,56.08,-4.83,-3064.65,-5979.8
GRF,Garforth,53.8,-1.38,-256.03,-3001.96
GGV,Gargrave,53.98,-2.11,-845.77,-3239.54
GAR,Garrowhill,55.86,-4.13,-2496.78,-5686.89
GRS,Garscadden,55.89,-4.37,-2688.89,-5729.22
GSD,Garsdale,54.32,-2.33,-1025.8,-3686.72
GSN,Garston (Hertfordshire),51.69,-0.38,559.91,-251.17
GSW,Garswood,53.49,-2.67,-1308.19,-2600.73
GRH,Gartcosh,55.89,-4.08,-2456.03,-5726.56
GMG,Garth (Bridgend),51.6,-3.64,-2098.78,-133.45
GTH,Garth (Powys),52.13,-3.53,-2007.81,-833.44
GVE,Garve,57.61,-4.69,-2952.66,-7979.06
GST,Gathurst,53.56,-2.69,-1326.35,-2693.16
GTY,Gatley,53.39,-2.23,-948.11,-2476.58
GTW,Gatwick Airport,51.16,-0.16,739.86,440.26
GGJ,Georgemas Junction,58.51,-3.45,-1944.36,-9153.43
GER,Gerrards Cross,51.59,-0.56,418.32,-123.76
GDP,Gidea Park,51.58,0.21,1039.2,-114.49
GFN,Giffnock,55.8,-4.29,-2630.64,-5620.12
GIG,Giggleswick,54.06,-2.3,-1007.94,-3348.1
GBD,Gilberdyke,53.75,-0.73,273.98,-2939.04
GFF,Gilfach Fargoed,51.68,-3.23,-1760.4,-247.94
GIL,Gillingham (Dorset),51.03,-2.27,-982.36,599.96
GLM,Gillingham (Kent),51.39,0.55,1320.2,140.03
GSC,Gilshochill,55.9,-4.28,-2621.2,-5741.74
GIP,Gipsy Hill,51.42,-0.08,802.83,90.83
GIR,Girvan,55.25,-4.85,-3083.14,-4892.87
GLS,Glaisdale,54.44,-0.79,223.66,-3840.7
GCW,Glan Conwy,53.27,-3.8,-2226.24,-2312.42
GLC,Glasgow Central,55.86,-4.26,-2601.33,-5692.78
GLQ,Glasgow Queen Street,55.86,-4.25,-2595.64,-5696.15
GLH,Glasshoughton,53.71,-1.34,-223.22,-2888.47
GLZ,Glazebrook,53.43,-2.46,-1135.58,-2522.34
GLE,Gleneagles,56.27,-3.73,-2171.93,-6234.07
GLF,Glenfinnan,56.87,-5.45,-3573.51,-7013.27
GLG,Glengarnock,55.74,-4.67,-2941.32,-5535.18
GLT,Glenrothes with Thornton,56.16,-3.14,-1692.24,-6087.38
GLO,Glossop,53.44,-1.95,-718.47,-2543.29
GCR,Gloucester,51.87,-2.24,-954.65,-484.18
GLY,Glynde,50.86,0.07,928.36,827.97
GOB,Gobowen,52.89,-3.04,-1604.96,-1824.86
GOD,Godalming,51.19,-0.62,366.46,401.02
GDL,Godley,53.45,-2.05,-804.67,-2552.73
GDN,Godstone,51.22,-0.05,830.35,359.85
GOE,Goldthorpe,53.53,-1.31,-200.09,-2659.24
GOF,Golf Street,56.5,-2.72,-1346.85,-6524.79
GOL,Golspie,57.97,-3.99,-2380.5,-8446.45
GOM,Gomshall,51.22,-0.44,510.66,358.13
GMY,Goodmayes,51.57,0.11,962.31,-94
GOO,Goole,53.7,-0.87,158.19,-2882.91
GTR,Goostrey,53.22,-2.33,-1026.27,-2253.92
GDH,Gordon Hill,51.66,-0.09,794.28,-220.91
GOR,Goring & Streatley,51.52,-1.13,-52.91,-35.7
GBS,Goring-by-Sea,50.82,-0.43,517.98,882.02
GTO,Gorton,53.47,-2.17,-896.34,-2574.92
GPO,Gospel Oak,51.56,-0.15,748.24,-79.85
GRK,Gourock,55.96,-4.82,-3057.26,-5826.52
GWN,Gowerton,51.65,-4.04,-2420.53,-201.62
GOX,Goxhill,53.68,-0.34,596.24,-2846.12
GPK,Grange Park,51.64,-0.1,791.8,-193.65
GOS,Grange-Over-Sands,54.2,-2.9,-1496.27,-3522.32
GTN,Grangetown,51.47,-3.19,-1729.81,35.31
GRA,Grantham,52.91,-0.64,347.22,-1841.74
GRT,Grateley,51.17,-1.62,-450.71,422.57
GVH,Gravelly Hill,52.52,-1.85,-639.78,-1331.25
GRV,Gravesend,51.44,0.37,1170.24,68.8
GRY,Grays,51.48,0.32,1133.69,23.29
GTA,Great Ayton,54.49,-1.12,-39.3,-3905.75
GRB,Great Bentley,51.85,1.07,1739.95,-466.39
GRC,Great Chesterford,52.06,0.19,1029.04,-737.69
GCT,Great Coates,53.58,-0.13,764.98,-2714.49
GMV,Great Malvern,52.11,-2.32,-1019.59,-802.09
GMN,Great Missenden,51.7,-0.71,292.83,-273.07
GYM,Great Yarmouth,52.61,1.72,2274.77,-1457.97
GNL,Green Lane,53.38,-3.02,-1588.99,-2463.47
GNR,Green Road,54.24,-3.25,-1775.89,-3586.55
GBK,Greenbank,53.25,-2.53,-1194.77,-2291.73
GRL,Greenfaulds,55.94,-3.99,-2385.56,-5791.21
GNF,Greenfield,53.54,-2.01,-771.78,-2666.72
GFD,Greenford,51.54,-0.34,590.19,-62.86
GNH,Greenhithe for Bluewater,51.45,0.28,1098.64,56.53
GKC,Greenock Central,55.95,-4.75,-3005.04,-5804.39
GKW,Greenock West,55.95,-4.77,-3017.44,-5806.99
GNW,Greenwich,51.48,-0.01,859.61,21.22
GEA,Gretna Green,55,-3.06,-1628.28,-4574.17
GMD,Grimsby Docks,53.57,-0.08,809.53,-2712.62
GMB,Grimsby Town,53.56,-0.09,800.28,-2699.29
GRN,Grindleford,53.31,-1.63,-455.21,-2362.16
GMT,Grosmont,54.44,-0.72,279.92,-3836.38
GRP,Grove Park,51.43,0.02,889.61,83.02
GUI,Guide Bridge,53.47,-2.11,-852.74,-2582.62
GLD,Guildford,51.24,-0.58,397.81,335.31
GSY,Guiseley,53.88,-1.72,-527.62,-3105.91
GUN,Gunnersbury,51.49,-0.28,646.27,2.92
GSL,Gunnislake,50.52,-4.22,-2570.18,1275.37
GNT,Gunton,52.87,1.35,1971.25,-1789.12
GWE,Gwersyllt,53.07,-3.02,-1590.2,-2058.34
GYP,Gypsy Lane,54.53,-1.18,-90.71,-3962.57
HAB,Habrough,53.61,-0.27,652.64,-2753.3
HCB,Hackbridge,51.38,-0.15,745.68,151.57
HKC,Hackney Central,51.55,-0.06,825.59,-68.82
HAC,Hackney Downs,51.55,-0.06,822.13,-71.25
HKW,Hackney Wick,51.54,-0.03,850.19,-64.64
HDM,Haddenham & Thame Parkway,51.77,-0.94,102.79,-360.88
HAD,Haddiscoe,52.53,1.62,2194.44,-1349.35
HDF,Hadfield,53.46,-1.97,-731.72,-2564.52
HDW,Hadley Wood,51.67,-0.18,727.22,-227.29
HGF,Hag Fold,53.53,-2.49,-1163.58,-2659.84
HAG,Hagley,52.42,-2.15,-879.9,-1210.5
HMY,Hairmyres,55.76,-4.22,-2570.63,-5565.27
HAL,Hale,53.38,-2.35,-1043.31,-2457.55
HAS,Halesworth,52.35,1.51,2099.25,-1111.77
HED,Halewood,53.37,-2.82,-1432.86,-2440.07
HFX,Halifax,53.72,-1.85,-641.32,-2903.13
HLG,Hall Green,52.44,-1.85,-633.99,-1229.24
HID,Hall I Th Wood,53.6,-2.41,-1097.64,-2742.91
HLR,Hall Road,53.5,-3.05,-1616.94,-2613.58
HAI,Halling,51.35,0.44,1234.09,184.69
HWH,Haltwhistle,54.97,-2.46,-1138.08,-4529.76
HMT,Ham Street,51.07,0.85,1568.15,555.16
HME,Hamble,50.87,-1.33,-212.87,812.06
HNC,Hamilton Central,55.77,-4.04,-2422.9,-5579.91
BKQ,Hamilton Square,53.39,-3.01,-1586.76,-2478.39
HNW,Hamilton West,55.78,-4.05,-2435.38,-5587.43
HMM,Hammerton,54,-1.28,-175.24,-3262.61
HMD,Hampden Park,50.8,0.28,1099.05,909.82
HDH,Hampstead Heath,51.56,-0.17,736.49,-80.49
HMP,Hampton,51.42,-0.37,567.71,101.97
HMC,Hampton Court,51.4,-0.34,591.65,119.38
HMW,Hampton Wick,51.41,-0.31,616.33,103.78
HIA,Hampton-in-Arden,52.43,-1.7,-515.27,-1219.16
HSD,Hamstead,52.53,-1.93,-702.01,-1352.21
HAM,Hamworthy,50.73,-2.02,-775.8,1002.69
HND,Hanborough,51.83,-1.37,-249.05,-431.7
HTH,Handforth,53.35,-2.21,-933.93,-2415.41
HAN,Hanwell,51.51,-0.34,594.94,-23.24
HPN,Hapton,53.78,-2.32,-1018.29,-2983.1
HRL,Harlech,52.86,-4.11,-2480.27,-1782.87
HDN,Harlesden,51.54,-0.26,660.59,-55.37
HRD,Harling Road,52.45,0.91,1612.7,-1251.32
HLN,Harlington,51.96,-0.5,466.92,-610.22
HWM,Harlow Mill,51.79,0.13,979.12,-386.32
HWN,Harlow Town,51.78,0.1,948.8,-374.2
HRO,Harold Wood,51.59,0.23,1062.25,-129.27
HPD,Harpenden,51.81,-0.35,584.12,-418.29
HRM,Harrietsham,51.24,0.67,1419.62,325.06
HGY,Harringay,51.58,-0.11,785.46,-108.56
HRY,Harringay Green Lanes,51.58,-0.1,791.34,-108.41
HRR,Harrington,54.61,-3.57,-2037.02,-4067.49
HGT,Harrogate,53.99,-1.54,-382.88,-3258.8
HRW,Harrow & Wealdstone,51.59,-0.33,598.73,-127.15
HOH,Harrow-on-the-Hill,51.58,-0.34,597.17,-110.78
HTF,Hartford,53.24,-2.55,-1211.54,-2278.95
HBY,Hartlebury,52.33,-2.22,-939.99,-1095.81
HPL,Hartlepool,54.69,-1.21,-113.48,-4163.22
HTW,Hartwood,55.81,-3.84,-2260.15,-5629.84
HPQ,Harwich International,51.95,1.26,1894.89,-590.96
HWC,Harwich Town,51.94,1.29,1920.63,-586.86
HSL,Haslemere,51.09,-0.72,284.48,528.47
HSK,Hassocks,50.92,-0.15,752.16,742.62
HGS,Hastings,50.86,0.58,1341.36,830.02
HTE,Hatch End,51.61,-0.37,569.82,-151.25
HAT,Hatfield,51.76,-0.22,695.37,-351.78
HFS,Hatfield & Stainforth,53.59,-1.02,35.99,-2731.63
HAP,Hatfield Peverel,51.78,0.59,1354.15,-372.64
HSG,Hathersage,53.33,-1.65,-475.51,-2388.5
HTY,Hattersley,53.45,-2.04,-792.87,-2544.35
HTN,Hatton,52.3,-1.67,-493.28,-1044.74
HAV,Havant,50.85,-0.98,70.6,834.16
HVN,Havenhouse,53.11,0.27,1094,-2112.98
HVF,Haverfordwest,51.8,-4.96,-3174.37,-402.32
HWD,Hawarden,53.19,-3.03,-1601.77,-2205.41
HWB,Hawarden Bridge,53.22,-3.03,-1602.29,-2248.07
HKH,Hawkhead,55.84,-4.4,-2716.5,-5669.88
HDB,Haydon Bridge,54.97,-2.25,-962.19,-4538.9
HYR,Haydons Road,51.43,-0.19,717.2,89.53
HAY,Hayes & Harlington,51.5,-0.42,528.1,-11.72
HYS,Hayes (Kent),51.38,0.01,879.45,154.27
HYL,Hayle,50.19,-5.42,-3548.97,1705.47
HYM,Haymarket,55.95,-3.22,-1753.76,-5805.01
HHE,Haywards Heath,51.01,-0.11,785.31,637.47
HAZ,Hazel Grove,53.38,-2.12,-859.52,-2456.02
HCN,Headcorn,51.17,0.63,1382.98,428.23
HDY,Headingley,53.82,-1.59,-428.58,-3030.56
HDL,Headstone Lane,51.6,-0.36,580.21,-141.64
HDG,Heald Green,53.37,-2.24,-953.64,-2445.83
HLI,Healing,53.58,-0.16,740.19,-2722.37
HHL,Heath High Level,51.52,-3.18,-1723.81,-29.28
HLL,Heath Low Level,51.52,-3.18,-1724.02,-28.11
HXX,Heathrow Airport T123,51.47,-0.45,503.59,27.88
HAF,Heathrow Airport T4,51.46,-0.45,507.89,46.73
HWV,Heathrow Airport T5,51.47,-0.49,471.08,31.37
HTC,Heaton Chapel,53.43,-2.18,-906.03,-2518.63
HBD,Hebden Bridge,53.74,-2.01,-767.39,-2925.51
HEC,Heckington,52.98,-0.29,631.47,-1934.13
HDE,Hedge End,50.93,-1.29,-184.6,732.59
HNF,Hednesford,52.71,-2,-761.9,-1585.17
HEI,Heighington,54.6,-1.58,-419.14,-4046.13
HLC,Helensburgh Central,56,-4.73,-2988.83,-5881.14
HLU,Helensburgh Upper,56.01,-4.73,-2986.42,-5891.78
HLD,Hellifield,54.01,-2.23,-945.83,-3281.86
HMS,Helmsdale,58.12,-3.66,-2113.12,-8637.21
HSB,Helsby,53.28,-2.77,-1388.63,-2322.51
HML,Hemel Hempstead,51.74,-0.49,470.93,-323.69
HEN,Hendon,51.58,-0.24,676.54,-112.1
HNG,Hengoed,51.65,-3.22,-1758.41,-199.9
HNL,Henley-in-Arden,52.29,-1.78,-584.19,-1039.21
HOT,Henley-on-Thames,51.53,-0.9,136.98,-52.25
HEL,Hensall,53.7,-1.11,-37.8,-2874.6
HFD,Hereford,52.06,-2.71,-1337.62,-739.45
HNB,Herne Bay,51.36,1.12,1782.83,168.89
HNH,Herne Hill,51.45,-0.1,788.3,53.34
HER,Hersham,51.38,-0.39,553.28,152.74
HFE,Hertford East,51.8,-0.07,811.71,-397.63
HFN,Hertford North,51.8,-0.09,796.34,-397.39
HES,Hessle,53.72,-0.44,510.55,-2899.42
HSW,Heswall,53.33,-3.07,-1635.72,-2393.65
HEV,Hever,51.18,0.1,948.75,407.77
HEW,Heworth,54.95,-1.56,-397.68,-4508.52
HEX,Hexham,54.97,-2.1,-837.7,-4538.01
HYD,Heyford,51.92,-1.3,-188.48,-554.32
HHB,Heysham Port,54.03,-2.91,-1504.74,-3310.91
HIB,High Brooms,51.15,0.28,1097.4,449.5
HST,High St (Glasgow),55.86,-4.24,-2587.03,-5692.53
ZHS,High Street Kensington Underground,0,0,871.2,67148.32
HWY,High Wycombe,51.63,-0.75,263.25,-176.66
HGM,Higham,51.43,0.47,1251.5,88.09
HIP,Highams Park,51.61,0,871.34,-149.67
HIG,Highbridge & Burnham,51.22,-2.97,-1552.9,359.85
HHY,Highbury & Islington,51.55,-0.1,787.95,-68.63
HTO,Hightown,53.53,-3.06,-1622.15,-2648.44
HLB,Hildenborough,51.21,0.23,1056.83,364.64
HLF,Hillfoot,55.92,-4.32,-2652.41,-5771.46
HLE,Hillington East,55.85,-4.35,-2680.51,-5686.23
HLW,Hillington West,55.86,-4.37,-2694.26,-5687.91
HIL,Hillside,53.62,-3.02,-1595.76,-2774.93
HLS,Hilsea,50.83,-1.06,7.82,868.44
HYW,Hinchley Wood,51.37,-0.34,593.47,155.32
HNK,Hinckley,52.54,-1.37,-247.74,-1357.34
HIN,Hindley,53.54,-2.58,-1229.37,-2670.77
HNA,Hinton Admiral,50.75,-1.71,-526.84,966.9
HIT,Hitchin,51.95,-0.26,656.31,-598.77
HGR,Hither Green,51.45,0,870.45,54.35
HOC,Hockley,51.6,0.66,1408.69,-142.72
HBN,Hollingbourne,51.27,0.63,1383.28,298.53
HOD,Hollinwood,53.52,-2.15,-879.29,-2641.75
HCH,Holmes Chapel,53.2,-2.35,-1046.39,-2223.11
HLM,Holmwood,51.18,-0.32,609.32,408.3
HOL,Holton Heath,50.71,-2.08,-823.5,1020.66
HHD,Holyhead,53.31,-4.63,-2905.85,-2364.93
HLY,Holytown,55.81,-3.97,-2369.92,-5631.69
HMN,Homerton,51.55,-0.04,839.7,-68.44
HYB,Honeybourne,52.1,-1.83,-625.41,-791.94
HON,Honiton,50.8,-3.19,-1727.91,909.59
HOY,Honley,53.61,-1.78,-581.36,-2756.83
HPA,Honor Oak Park,51.45,-0.05,833.99,56.88
HOK,Hook,51.28,-0.96,86.88,279.2
HOO,Hooton,53.3,-2.98,-1556.86,-2351.25
HOP,Hope (Derbyshire),53.35,-1.73,-538.6,-2414.79
HPE,Hope (Flintshire),53.12,-3.04,-1605.68,-2116.74
HPT,Hopton Heath,52.39,-2.91,-1503.76,-1170.04
HOR,Horley,51.17,-0.16,739.85,424.24
HBP,Hornbeam Park,53.98,-1.53,-374.08,-3241.45
HRN,Hornsey,51.59,-0.11,779.88,-120.43
HRS,Horsforth,53.85,-1.63,-458.72,-3068.93
HRH,Horsham,51.07,-0.32,610.81,558.18
HSY,Horsley,51.28,-0.44,516.09,280.05
HIR,Horton-in-Ribblesdale,54.15,-2.3,-1006.34,-3462.5
HWI,Horwich Parkway,53.58,-2.54,-1200.16,-2717.55
HSC,Hoscar,53.6,-2.8,-1415.59,-2742.67
HGN,Hough Green,53.37,-2.78,-1392.14,-2449.3
HOU,Hounslow,51.46,-0.36,576.09,41.18
HOV,Hove,50.84,-0.17,731.99,859.2
HXM,Hoveton & Wroxham,52.72,1.41,2019.57,-1592.82
HWW,How Wood,51.72,-0.34,590.09,-291.62
HOW,Howden,53.76,-0.86,169.21,-2960.65
HOZ,Howwood (Renfrewshire),55.81,-4.56,-2850.42,-5628.64
HYK,Hoylake,53.39,-3.18,-1721.46,-2472.54
HBB,Hubberts Bridge,52.98,-0.11,781.43,-1931.92
HKN,Hucknall,53.04,-1.2,-104.11,-2013.63
HUD,Huddersfield,53.65,-1.79,-584.76,-2809.23
HUL,Hull Paragon,53.74,-0.35,589.26,-2934.07
HUP,Humphrey Park,53.45,-2.33,-1027.14,-2553.41
HCT,Huncoat,53.77,-2.35,-1042.11,-2970.57
HGD,Hungerford,51.41,-1.51,-362.23,103.28
HUB,Hunmanby,54.17,-0.31,614.47,-3494.96
HUN,Huntingdon,52.33,-0.19,714.55,-1088.25
HNT,Huntly,57.44,-2.78,-1393.2,-7759.07
HNX,Hunts Cross,53.36,-2.85,-1457.29,-2433.94
HUR,Hurst Green,51.24,0,874.42,325.59
HUT,Hutton Cranswick,53.96,-0.43,517.78,-3209.89
HUY,Huyton,53.41,-2.84,-1447.54,-2497.92
HYC,Hyde Central,53.45,-2.09,-829.97,-2552.76
HYT,Hyde North,53.46,-2.09,-829.99,-2569.17
HKM,Hykeham,53.2,-0.6,383.34,-2218.44
HYN,Hyndland,55.88,-4.31,-2647.84,-5718.86
HYH,Hythe,51.89,0.93,1627.7,-510.57
IBM,IBM,55.93,-4.83,-3065.89,-5783.66
IFI,Ifield,51.12,-0.21,696.03,493.56
IFD,Ilford,51.56,0.07,927.22,-84.8
ILK,Ilkley,53.92,-1.82,-614.91,-3169.83
IMW,Imperial Wharf,0,0,871.2,67148.32
INC,Ince,53.54,-2.61,-1259.62,-2666.78
INE,Ince & Elton,53.28,-2.82,-1425.72,-2324.58
INT,Ingatestone,51.67,0.38,1184.6,-225.51
INS,Insch,57.34,-2.62,-1263.32,-7619.76
IGD,Invergordon,57.69,-4.18,-2534.37,-8077.47
ING,Invergowrie,56.46,-3.06,-1622.42,-6470.91
INK,Inverkeithing,56.03,-3.4,-1898.73,-5920.88
INP,Inverkip,55.91,-4.87,-3102.88,-5753.23
INV,Inverness,57.48,-4.22,-2573.23,-7805.73
INH,Invershin,57.92,-4.4,-2717.09,-8385.73
INR,Inverurie,57.29,-2.37,-1064.67,-7552.97
IPS,Ipswich,52.05,1.14,1804.61,-725.67
IRL,Irlam,53.43,-2.43,-1113.54,-2530.68
IRV,Irvine,55.61,-4.68,-2941.84,-5368.24
ISL,Isleworth,51.47,-0.34,596.42,25.22
ISP,Islip,51.83,-1.24,-138.66,-432.47
IVR,Iver,51.51,-0.51,457.92,-18.77
IVY,Ivybridge,50.39,-3.9,-2313.28,1435.09
JEQ,Jewellery Quarter,52.49,-1.91,-689.21,-1297.91
JOH,Johnston,51.76,-5,-3203.83,-342.48
JHN,Johnstone,55.83,-4.5,-2801.95,-5660.12
JOR,Jordanhill,55.88,-4.33,-2657.09,-5722.1
KSL,Kearsley,53.54,-2.38,-1066.45,-2673.92
KSN,Kearsney,51.15,1.27,1908.7,449.53
KEI,Keighley,53.87,-1.9,-679.35,-3095.4
KEH,Keith,57.55,-2.95,-1538.15,-7898.05
KEL,Kelvedon,51.84,0.7,1444.08,-451.97
KVD,Kelvindale,55.89,-4.31,-2643.88,-5736.91
KEM,Kemble,51.68,-2.02,-778.84,-237.54
KMH,Kempston Hardwick,52.09,-0.5,460.21,-779.95
KMP,Kempton Park,51.42,-0.41,537.02,95.35
KMS,Kemsing,51.3,0.25,1073.01,256.79
KML,Kemsley,51.36,0.74,1470.97,171.7
KEN,Kendal,54.33,-2.74,-1363.25,-3700.75
KLY,Kenley,51.32,-0.1,788.65,221.04
KNE,Kennett,52.28,0.49,1271.23,-1021.25
KNS,Kennishead,55.81,-4.33,-2656.32,-5631.89
KNL,Kensal Green,51.53,-0.22,688.62,-47.66
KNR,Kensal Rise,51.53,-0.22,691.09,-52.29
KPA,Kensington Olympia,51.5,-0.21,700.49,-3.99
KTH,Kent House,51.41,-0.05,833.85,106.13
KTN,Kentish Town,51.55,-0.14,757.47,-72.93
KTW,Kentish Town West,51.55,-0.15,751.47,-68.39
KNT,Kenton,51.58,-0.32,612.54,-113.95
KBK,Kents Bank,54.17,-2.93,-1514.62,-3493.15
KET,Kettering,52.39,-0.73,274.54,-1172.89
KWB,Kew Bridge,51.49,-0.29,635.62,6.19
KWG,Kew Gardens,51.48,-0.28,638.79,21.51
KEY,Keyham,50.39,-4.18,-2537.25,1440.09
KYN,Keynsham,51.42,-2.49,-1163.42,100.33
KDB,Kidbrooke,51.46,0.03,894.3,40.93
KID,Kidderminster,52.38,-2.24,-955.29,-1161.06
KDG,Kidsgrove,53.09,-2.24,-959.67,-2076.58
KWL,Kidwelly,51.73,-4.32,-2649.75,-313.26
KBN,Kilburn High Road,51.54,-0.19,714.71,-56.41
KLD,Kildale,54.48,-1.07,0.26,-3890.04
KIL,Kildonan,58.17,-3.87,-2285.17,-8707.09
KGT,Kilgetty,51.73,-4.72,-2974.51,-310.35
KMK,Kilmarnock,55.61,-4.5,-2797.92,-5369.87
KLM,Kilmaurs,55.64,-4.53,-2823.86,-5402.58
KPT,Kilpatrick,55.92,-4.45,-2760.99,-5777.48
KWN,Kilwinning,55.66,-4.71,-2970.28,-5427.03
KBC,Kinbrace,58.26,-3.94,-2343.12,-8820.51
KGM,Kingham,51.9,-1.63,-457.24,-532.21
KGH,Kinghorn,56.07,-3.17,-1717.63,-5966.08
KGL,Kings Langley,51.71,-0.44,513.63,-276.77
KLN,King's Lynn,52.75,0.4,1200.32,-1642.65
KNN,Kings Norton,52.41,-1.93,-706,-1198.87
KGN,Kings Nympton,50.94,-3.91,-2314.22,727.8
KGP,Kings Park,55.82,-4.25,-2592.86,-5640.81
KGS,Kings Sutton,52.02,-1.28,-173.52,-687.53
KGE,Kingsknowe,55.92,-3.27,-1792.24,-5770.4
KNG,Kingston,51.41,-0.3,625.57,106.09
KND,Kingswood,51.29,-0.21,698.74,259.82
KIN,Kingussie,57.08,-4.05,-2433.76,-7281.09
KIT,Kintbury,51.4,-1.45,-308.15,119.44
KBX,Kirby Cross,51.84,1.22,1862.16,-452.88
KKS,Kirk Sandall,53.56,-1.07,-5.5,-2698.4
KIR,Kirkby,53.49,-2.9,-1496.35,-2597.69
KKB,Kirkby in Ashfield,53.1,-1.25,-150.8,-2094.24
KSW,Kirkby Stephen,54.46,-2.37,-1060.63,-3861.17
KBF,Kirkby-in-Furness,54.23,-3.19,-1729.67,-3570.65
KDY,Kirkcaldy,56.11,-3.17,-1711.82,-6021.79
KRK,Kirkconnel,55.39,-4,-2389.97,-5078.03
KKD,Kirkdale,53.44,-2.98,-1560.52,-2538.15
KKM,Kirkham & Wesham,53.79,-2.88,-1479.21,-2990.43
KKH,Kirkhill,55.81,-4.17,-2528.79,-5633.27
KKN,Kirknewton,55.89,-3.43,-1928.36,-5730.52
KWD,Kirkwood,55.85,-4.05,-2430.66,-5685.53
KTL,Kirton Lindsey,53.48,-0.59,386.81,-2595.93
KIV,Kiveton Bridge,53.34,-1.27,-162.31,-2408.32
KVP,Kiveton Park,53.34,-1.24,-139.74,-2402.84
KNA,Knaresborough,54.01,-1.47,-328.14,-3279.12
KBW,Knebworth,51.87,-0.19,718.45,-486.07
KNI,Knighton,52.35,-3.04,-1610.03,-1109.66
KCK,Knockholt,51.35,0.13,977.93,193.41
KNO,Knottingley,53.71,-1.26,-155.79,-2885.02
KNU,Knucklas,52.36,-3.1,-1654.63,-1128.95
KNF,Knutsford,53.3,-2.37,-1063.48,-2357.47
KYL,Kyle of Lochalsh,57.28,-5.71,-3788.99,-7544.47
LDY,Ladybank,56.27,-3.12,-1675.32,-6232.68
LAD,Ladywell,51.46,-0.02,855.68,49.37
LAI,Laindon,51.57,0.42,1216.72,-96.05
LRG,Lairg,58,-4.4,-2718.24,-8485.76
LKE,Lake,50.65,-1.17,-80.07,1105.33
LAK,Lakenheath,52.45,0.53,1306.64,-1243.24
LAM,Lamphey,51.67,-4.87,-3103.46,-225.7
LNK,Lanark,55.67,-3.77,-2205.95,-5449.36
LAN,Lancaster,54.05,-2.81,-1418.93,-3331
LAC,Lancing,50.83,-0.32,607.68,869.81
LAW,Landywood,52.66,-2.02,-776.84,-1516.59
LGB,Langbank,55.92,-4.59,-2868.54,-5777.24
LHO,Langho,53.8,-2.45,-1125.31,-3013.38
LNY,Langley,51.51,-0.54,429.35,-18.2
LGG,Langley Green,52.49,-2,-764.05,-1303.7
LGM,Langley Mill,53.02,-1.33,-214.56,-1987.26
LGS,Langside,55.82,-4.28,-2617.39,-5642.43
LGW,Langwathby,54.69,-2.66,-1301.3,-4173.12
LAG,Langwith-Whaley Thorns,53.23,-1.21,-115.44,-2266.91
LAP,Lapford,50.86,-3.81,-2237.43,830.23
LPW,Lapworth,52.34,-1.73,-536.11,-1104.7
LBT,Larbert,56.02,-3.83,-2253.02,-5905.27
LAR,Largs,55.79,-4.87,-3098.48,-5605.4
LRH,Larkhall,55.74,-3.98,-2371.22,-5534.8
LAU,Laurencekirk,0,0,871.2,67148.32
LWH,Lawrence Hill,51.46,-2.56,-1220.13,46.8
LAY,Layton,53.84,-3.03,-1600.26,-3053.35
LZB,Lazonby & Kirkoswald,54.75,-2.7,-1332.71,-4245.97
LEG,Lea Green,53.43,-2.72,-1350.36,-2520.63
LEH,Lea Hall,52.48,-1.79,-585.48,-1286.45
LEA,Leagrave,51.91,-0.46,497.24,-536.02
LHM,Lealholm,54.46,-0.83,197.75,-3868.3
LMS,Leamington Spa,52.28,-1.54,-381.73,-1030.67
LSW,Leasowe,53.41,-3.1,-1656.84,-2495.79
LHD,Leatherhead,51.3,-0.33,599.55,254.75
LED,Ledbury,52.04,-2.42,-1106.62,-718.29
LEE,Lee,51.45,0.01,882.08,58.18
LDS,Leeds,53.79,-1.55,-390.89,-3000.23
LEI,Leicester,52.63,-1.13,-46.58,-1483.09
LIH,Leigh (Kent),51.19,0.21,1042.89,391.48
LES,Leigh-on-Sea,51.54,0.64,1393.53,-61.62
LBZ,Leighton Buzzard,51.92,-0.68,319.04,-550.55
LEL,Lelant,50.18,-5.44,-3562.9,1708.24
LTS,Lelant Saltings,50.18,-5.44,-3566.85,1714.53
LEN,Lenham,51.23,0.71,1448.46,338.56
LNZ,Lenzie,55.92,-4.15,-2516.7,-5773.06
LEO,Leominster,52.23,-2.73,-1355.78,-953.27
LET,Letchworth Garden City,51.98,-0.23,684.22,-633.56
LEU,Leuchars (for St. Andrews),56.38,-2.89,-1488.91,-6364.8
LVM,Levenshulme,53.44,-2.19,-917.14,-2543.22
LWS,Lewes,50.87,0.01,880.44,813.02
LEW,Lewisham,51.47,-0.01,859.77,37.05
LEY,Leyland,53.7,-2.69,-1320.43,-2875
LEM,Leyton Midland Road,51.57,-0.01,865.45,-98.12
LER,Leytonstone High Road,51.56,0.01,877.96,-90.86
LIC,Lichfield City,52.68,-1.83,-617.62,-1546.9
LTV,Lichfield Trent Valley,52.69,-1.8,-597.07,-1555.41
LID,Lidlington,52.04,-0.56,415.35,-713.86
LHS,Limehouse,51.51,-0.04,839.1,-24.36
LCN,Lincoln Central,53.23,-0.54,430.84,-2258.52
LFD,Lingfield,51.18,-0.01,865.36,414.23
LGD,Lingwood,52.62,1.49,2086.33,-1471.08
LIN,Linlithgow,55.98,-3.6,-2061.57,-5844.96
LIP,Liphook,51.07,-0.8,218.53,551.33
LSK,Liskeard,50.45,-4.47,-2772.49,1365.63
LIS,Liss,51.04,-0.89,142.97,587.51
LVT,Lisvane & Thornhill,51.54,-3.19,-1726.98,-65.8
LTK,Little Kimble,51.75,-0.81,211.83,-336.6
LTT,Little Sutton,53.29,-2.94,-1529.35,-2336.01
LTL,Littleborough,53.64,-2.09,-837.19,-2802.17
LIT,Littlehampton,50.81,-0.55,425.89,891.95
LVN,Littlehaven,51.08,-0.31,620.02,540.33
LTP,Littleport,52.46,0.32,1129.39,-1262.65
LVC,Liverpool Central,53.4,-2.98,-1558.6,-2491.29
LVJ,Liverpool James Street,53.4,-2.99,-1569.05,-2491.51
LIV,Liverpool Lime Street,53.41,-2.98,-1557.44,-2494.82
LPY,Liverpool South Parkway,53.36,-2.89,-1485.31,-2429.97
LSN,Livingston North,55.9,-3.54,-2019.56,-5747.08
LVG,Livingston South,55.87,-3.5,-1984.67,-5708.36
LLA,Llanaber,52.74,-4.08,-2454.16,-1626.63
LBR,Llanbedr,52.82,-4.11,-2481.09,-1730.09
LLT,Llanbister Road,52.34,-3.21,-1749.67,-1098.39
LNB,Llanbradach,51.6,-3.23,-1765.68,-142.32
LLN,Llandaf,51.51,-3.23,-1762.3,-18.8
LDN,Llandanwg,52.84,-4.12,-2492.23,-1750.05
LLC,Llandecwyn,52.92,-4.06,-2437.73,-1860.28
LLL,Llandeilo,51.89,-3.99,-2380.53,-510.18
LLV,Llandovery,52,-3.8,-2230.41,-653.58
LLO,Llandrindod,52.24,-3.38,-1884.83,-975.72
LLD,Llandudno,53.32,-3.83,-2250.12,-2382.18
LLJ,Llandudno Junction,53.28,-3.81,-2235.52,-2333.97
LLI,Llandybie,51.82,-4,-2394.2,-426.32
LLE,Llanelli,51.67,-4.16,-2522.78,-234.4
LLF,Llanfairfechan,53.26,-3.98,-2377.51,-2299.21
LPG,Llanfairpwll,53.22,-4.21,-2561.85,-2251.81
LLG,Llangadog,51.94,-3.89,-2304.07,-581.73
LLM,Llangammarch,52.11,-3.55,-2028.12,-808.74
LLH,Llangennech,51.69,-4.08,-2455.59,-256.92
LGO,Llangynllo,52.35,-3.16,-1707.22,-1115.6
LLR,Llanharan,51.54,-3.44,-1935.11,-56.7
LTH,Llanhilleth,51.7,-3.14,-1685.88,-268.87
LLS,Llanishen,51.53,-3.18,-1724.03,-50.37
LWR,Llanrwst,53.14,-3.8,-2230.57,-2151.72
LAS,Llansamlet,51.66,-3.88,-2297.17,-218.28
LWM,Llantwit Major,51.41,-3.48,-1968.42,110.01
LNR,Llanwrda,51.96,-3.87,-2286.56,-610.9
LNW,Llanwrtyd,52.1,-3.63,-2091.21,-796.24
LLW,Llwyngwril,52.67,-4.09,-2462.72,-1529.19
LLY,Llwynypia,51.63,-3.45,-1945.5,-182.42
LHA,Loch Awe,56.4,-5.04,-3241.03,-6399.89
LHE,Loch Eil Outward Bound,56.86,-5.19,-3363.04,-6990.92
LCL,Lochailort,56.88,-5.66,-3747.86,-7024.43
LCS,Locheilside,56.86,-5.29,-3443.35,-6991.11
LCG,Lochgelly,56.14,-3.31,-1830.83,-6052.14
LCC,Lochluichart,57.62,-4.81,-3051.51,-7989.69
LHW,Lochwinnoch,55.79,-4.62,-2893.66,-5598.11
LOC,Lockerbie,55.12,-3.35,-1863.95,-4732.14
LCK,Lockwood,53.63,-1.8,-597.4,-2791.22
BFR,London Blackfriars,51.51,-0.1,786.93,-23.09
LBG,London Bridge,51.51,-0.09,801.82,-14.33
CST,London Cannon Street,51.51,-0.09,797.3,-21.48
CHX,London Charing Cross,51.51,-0.12,769.98,-17.71
EUS,London Euston,51.53,-0.13,761.45,-44.68
FST,London Fenchurch Street,51.51,-0.08,807.1,-22.77
LOF,London Fields,51.54,-0.06,824.1,-61.35
KGX,London Kings Cross,51.53,-0.12,770.95,-47.96
LST,London Liverpool Street,51.52,-0.08,804.32,-31.18
MYB,London Marylebone,51.52,-0.16,737.75,-37.07
PAD,London Paddington,51.52,-0.18,726.97,-29.13
LRB,London Road (Brighton),50.84,-0.14,759.87,857.32
LRD,London Road (Guildford),51.24,-0.57,410.33,330.52
STP,London St Pancras Domestic,51.53,-0.13,768.82,-47.61
SPX,London St Pancras (Intl),51.53,-0.13,768.41,-49.96
VIC,London Victoria,51.5,-0.14,753.31,-1.5
WAT,London Waterloo,51.5,-0.11,780.55,-10.19
WAE,London Waterloo East,51.5,-0.11,782.39,-13
LBK,Long Buckby,52.29,-1.09,-14.93,-1044
LGE,Long Eaton,52.89,-1.29,-179.38,-1813.91
LPR,Long Preston,54.02,-2.26,-968.46,-3289.65
LGK,Longbeck,54.59,-1.03,30.36,-4036.03
LOB,Longbridge,52.4,-1.98,-744.74,-1176.62
LNG,Longcross,51.39,-0.59,386.27,142.05
LGF,Longfield,51.4,0.3,1116.19,127.73
LND,Longniddry,55.98,-2.89,-1484.53,-5845.01
LPT,Longport,53.04,-2.22,-936.35,-2018.05
LGN,Longton,52.99,-2.14,-871.75,-1950.21
LOO,Looe,50.36,-4.46,-2763.28,1479.9
LOT,Lostock,53.57,-2.49,-1162.72,-2710.87
LTG,Lostock Gralam,53.27,-2.47,-1139.43,-2312.73
LOH,Lostock Hall,53.72,-2.69,-1320.39,-2907.58
LOS,Lostwithiel,50.41,-4.67,-2933.95,1416.94
LBO,Loughborough,52.78,-1.2,-104.2,-1675.46
LGJ,Loughborough Junction,51.47,-0.1,787.58,35.73
LOW,Lowdham,53.01,-1,57.57,-1972.72
LSY,Lower Sydenham,51.42,-0.03,844.01,90.34
LWT,Lowestoft,52.47,1.75,2298.28,-1278.37
LUD,Ludlow,52.37,-2.72,-1343.37,-1143.32
LUT,Luton,51.88,-0.41,533.51,-506.21
LTN,Luton Airport Parkway,51.87,-0.4,548.06,-493.89
LUX,Luxulyan,50.39,-4.75,-3000.87,1439.38
LYD,Lydney,51.71,-2.53,-1193.22,-287.55
LYE,Lye,52.46,-2.12,-854.55,-1259.43
LYP,Lymington Pier,50.76,-1.53,-376.23,959.51
LYT,Lymington Town,50.76,-1.54,-382.52,956.11
LYC,Lympstone Commando,50.66,-3.44,-1935.17,1084.78
LYM,Lympstone Village,50.65,-3.43,-1927.44,1102.45
LTM,Lytham,53.74,-2.96,-1546.27,-2927.72
MAC,Macclesfield,53.26,-2.12,-859,-2301.88
MCN,Machynlleth,52.6,-3.85,-2272.57,-1435.76
MST,Maesteg,51.61,-3.65,-2109.55,-151.04
MEW,Maesteg (Ewenny Road),51.61,-3.65,-2104.93,-145.04
MAG,Maghull,53.51,-2.93,-1519.21,-2624.13
MDN,Maiden Newton,50.78,-2.57,-1224.44,931.21
MAI,Maidenhead,51.52,-0.72,281.8,-32.02
MDB,Maidstone Barracks,51.28,0.51,1290.39,282.9
MDE,Maidstone East,51.28,0.52,1296.37,282.03
MDW,Maidstone West,51.27,0.52,1291.87,291.64
MAL,Malden Manor,51.38,-0.26,658.22,142.75
MLG,Mallaig,57.01,-5.83,-3883.41,-7187.46
MLT,Malton,54.13,-0.8,220.99,-3439.92
MVL,Malvern Link,52.13,-2.32,-1020.88,-823.18
MIA,Manchester Airport,53.37,-2.27,-982.64,-2439.72
MCO,Manchester Oxford Road,53.47,-2.24,-957.8,-2581.77
MAN,Manchester Piccadilly,53.48,-2.23,-946.75,-2585.32
MUF,Manchester United FC Halt,53.46,-2.29,-997.06,-2566.41
MCV,Manchester Victoria,53.49,-2.24,-957.86,-2599.35
MNE,Manea,52.5,0.18,1016.13,-1308.88
MNG,Manningtree,51.95,1.05,1723.71,-593.26
MNP,Manor Park,51.55,0.05,908.14,-75.95
MNR,Manor Road,53.39,-3.17,-1715.43,-2478.5
MRB,Manorbier,51.66,-4.79,-3037.05,-216.54
MAS,Manors,54.97,-1.6,-437.63,-4536.16
MFT,Mansfield,53.14,-1.2,-105.2,-2149.58
MSW,Mansfield Woodhouse,53.16,-1.2,-107.35,-2174.22
MCH,March,52.56,0.09,945.58,-1389.8
MRN,Marden,51.18,0.49,1273.43,415.9
MAR,Margate,51.39,1.37,1990.22,141.71
MHR,Market Harborough,52.48,-0.91,129.92,-1286.13
MKR,Market Rasen,53.38,-0.34,596.27,-2465.04
MNC,Markinch,56.2,-3.13,-1682.26,-6137.79
MKT,Marks Tey,51.88,0.78,1510.1,-504.44
MLW,Marlow,51.57,-0.77,246.1,-100.25
MPL,Marple,53.4,-2.06,-806.7,-2486.21
MSN,Marsden,53.6,-1.93,-703.52,-2750.25
MSK,Marske,54.59,-1.02,40.17,-4033.68
MGN,Marston Green,52.47,-1.76,-560.68,-1268.91
MTM,Martin Mill,51.17,1.35,1970.82,421.75
MAO,Martins Heron,51.41,-0.72,280.15,112.81
MTO,Marton,54.54,-1.2,-105.66,-3976.8
MYH,Maryhill,55.9,-4.3,-2637.46,-5741.56
MYL,Maryland,51.55,0.01,876.14,-67.46
MRY,Maryport,54.71,-3.49,-1979.08,-4195.59
MAT,Matlock,53.14,-1.56,-400.31,-2143.84
MTB,Matlock Bath,53.12,-1.56,-399.23,-2122.73
MAU,Mauldeth Road,53.43,-2.21,-930.61,-2529.12
MAX,Maxwell Park,55.84,-4.29,-2626.65,-5664.06
MAY,Maybole,55.35,-4.69,-2950.12,-5034.24
MZH,Maze Hill,51.48,0,873.89,14.57
MHS,Meadowhall,53.42,-1.41,-281.75,-2507.32
MEL,Meldreth,52.09,0.01,878.5,-777.99
MKM,Melksham,51.38,-2.14,-877.86,149.04
MES,Melton,52.1,1.34,1962.68,-795.89
MMO,Melton Mowbray,52.76,-0.89,148.92,-1651.61
MEN,Menheniot,50.43,-4.41,-2724.99,1392.53
MNN,Menston,53.89,-1.74,-544.28,-3127.31
MEO,Meols,53.4,-3.15,-1701.43,-2484.56
MEC,Meols Cop,53.65,-2.98,-1555.52,-2806.28
MEP,Meopham,51.39,0.36,1162.33,140.42
MEY,Merrytown,55.75,-3.98,-2373.45,-5547.98
MHM,Merstham,51.26,-0.15,748.68,299.87
MER,Merthyr Tydfil,51.74,-3.38,-1883.32,-326.62
MEV,Merthyr Vale,51.69,-3.34,-1850.12,-251.06
MGM,Metheringham,53.14,-0.39,551.94,-2144.81
MCE,MetroCentre,54.96,-1.67,-487.29,-4517.89
MEX,Mexborough,53.49,-1.29,-179.75,-2603.96
MIC,Micheldever,51.18,-1.26,-157.01,406.48
MIK,Micklefield,53.79,-1.32,-208.95,-2992.66
MBR,Middlesbrough,54.58,-1.23,-135.83,-4022.84
MDL,Middlewood,53.36,-2.08,-827.98,-2433.09
MDG,Midgham,51.4,-1.18,-89.34,127.98
MFH,Milford Haven,51.71,-5.04,-3240.24,-288.01
MLF,Milford (Surrey),51.16,-0.64,351.71,431.36
MIL,Mill Hill Broadway,51.61,-0.25,667.68,-154.88
MLH,Mill Hill (Lancashire),53.74,-2.5,-1169.22,-2922.73
MLB,Millbrook (Bedfordshire),52.05,-0.53,436.74,-729.9
MBK,Millbrook (Hants),50.91,-1.43,-298.25,759.74
MIN,Milliken Park,55.83,-4.53,-2826.19,-5647.61
MLM,Millom,54.21,-3.27,-1796.7,-3542.6
MIH,Mills Hill,53.55,-2.17,-900.3,-2681.56
MLN,Milngavie,55.94,-4.32,-2648.2,-5798.55
MLR,Milnrow,53.61,-2.11,-850.94,-2756.67
MKC,Milton Keynes Central,52.03,-0.77,239.81,-704.41
MFF,Minffordd,52.93,-4.08,-2460.51,-1867.38
MSR,Minster,51.33,1.32,1945.53,215.07
MIR,Mirfield,53.67,-1.69,-508.62,-2839.44
MIS,Mistley,51.94,1.08,1753.2,-586.19
MTC,Mitcham Eastfields,51.41,-0.15,745.62,111.76
MIJ,Mitcham Junction,51.39,-0.16,742.89,131.92
MOB,Mobberley,53.33,-2.33,-1031.84,-2393.95
MON,Monifieth,56.48,-2.82,-1427.36,-6501.73
MRS,Monks Risborough,51.74,-0.83,194.8,-315.12
MTP,Montpelier,51.47,-2.59,-1239.03,32.88
MTS,Montrose,56.71,-2.47,-1145.02,-6805.15
MRF,Moorfields,53.41,-2.99,-1566.78,-2496.46
MOG,Moorgate,0,0,871.2,67148.32
MSD,Moorside,53.52,-2.35,-1047.79,-2636.5
MRP,Moorthorpe,53.59,-1.3,-193.12,-2738.87
MRR,Morar,56.97,-5.82,-3877.15,-7140.16
MRD,Morchard Road,50.83,-3.78,-2208.83,863.53
MDS,Morden South,51.4,-0.2,707.82,127.53
MCM,Morecambe,54.07,-2.87,-1469.54,-3359.42
MTN,Moreton (Dorset),50.7,-2.31,-1015.2,1034.07
MRT,Moreton (Merseyside),53.41,-3.11,-1667.88,-2495.62
MIM,Moreton-in-Marsh,51.99,-1.7,-515.64,-649.62
MFA,Morfa Mawddach,52.71,-4.03,-2417.45,-1581.8
MLY,Morley,53.75,-1.59,-426.4,-2941.6
MPT,Morpeth,55.16,-1.68,-501.39,-4783.59
MOR,Mortimer,51.37,-1.04,26.64,159.14
MTL,Mortlake,51.47,-0.27,653.77,33.59
MSS,Moses Gate,53.56,-2.4,-1087.21,-2688.7
MOS,Moss Side,53.76,-2.94,-1529.55,-2960.52
MSL,Mossley,53.51,-2.04,-794.4,-2634.83
MSH,Mossley Hill,53.38,-2.92,-1506.64,-2457.97
MPK,Mosspark,55.84,-4.35,-2674.87,-5668.11
MSO,Moston,53.52,-2.17,-900.21,-2645.23
MTH,Motherwell,55.79,-3.99,-2386.56,-5604.01
MOT,Motspur Park,51.4,-0.24,676.13,129.11
MTG,Mottingham,51.44,0.05,912.25,70.75
DBG,Mottisfont & Dunbridge,51.03,-1.55,-390.31,600.25
MLD,Mouldsworth,53.23,-2.73,-1357.2,-2265.97
MCB,Moulsecoomb,50.85,-0.12,774.27,844.2
MFL,Mount Florida,55.83,-4.26,-2604.9,-5649.82
MTV,Mount Vernon,55.84,-4.14,-2502.61,-5666.82
MTA,Mountain Ash,51.68,-3.38,-1882.56,-244.13
MOO,Muir of Ord,57.52,-4.46,-2767.14,-7855.04
MUI,Muirend,55.81,-4.27,-2614.54,-5628.45
MUB,Musselburgh,55.93,-3.07,-1635.3,-5789.07
MYT,Mytholmroyd,53.73,-1.98,-744.86,-2914.32
NFN,Nafferton,54.01,-0.39,555.58,-3282.93
NLS,Nailsea & Backwell,51.42,-2.75,-1372.23,97.41
NRN,Nairn,57.58,-3.87,-2287.62,-7936.17
NAN,Nantwich,53.06,-2.52,-1183.5,-2046.13
NAR,Narberth,51.8,-4.73,-2984.31,-398.06
NBR,Narborough,52.57,-1.2,-110.25,-1404.67
NVR,Navigation Road,53.4,-2.34,-1040.23,-2479.37
NTH,Neath,51.66,-3.81,-2233.99,-219.4
NMT,Needham Market,52.15,1.06,1731.88,-858.67
NEI,Neilston,55.78,-4.43,-2739.42,-5592.75
NEL,Nelson,53.84,-2.21,-934.34,-3052.54
NES,Neston,53.29,-3.06,-1627.62,-2345.01
NET,Netherfield,52.96,-1.08,-9.34,-1913.44
NRT,Nethertown,54.46,-3.57,-2037.55,-3863.55
NTL,Netley,50.87,-1.34,-223.14,807.51
NBA,New Barnet,51.65,-0.17,730.11,-201.42
NBC,New Beckenham,51.42,-0.04,842.44,100.85
NBN,New Brighton,53.44,-3.05,-1615.71,-2533.89
NCE,New Clee,53.57,-0.06,822.96,-2712.78
NWX,New Cross,51.48,-0.03,844.29,23.15
NXG,New Cross Gate,51.48,-0.04,838.26,24.51
NCK,New Cumnock,55.4,-4.18,-2541.54,-5096.84
NEH,New Eltham,51.44,0.07,928.6,73.55
NHY,New Hey,53.6,-2.09,-837.36,-2747.43
NHL,New Holland,53.7,-0.36,577.42,-2879
NHE,New Hythe,51.31,0.45,1242.24,236.17
NLN,New Lane,53.61,-2.87,-1467.58,-2760.84
NEM,New Malden,51.4,-0.26,662.46,117.4
NMC,New Mills Central,53.36,-2.01,-764.62,-2439.45
NMN,New Mills Newtown,53.36,-2.01,-766.95,-2432.66
NWM,New Milton,50.76,-1.66,-480.91,962.84
NPD,New Pudsey,53.8,-1.68,-499.65,-3012.74
NSG,New Southgate,51.61,-0.14,754.54,-156.49
NCT,Newark Castle,53.08,-0.81,207.99,-2068.04
NNG,Newark North Gate,53.08,-0.8,218.63,-2070.49
NBE,Newbridge,51.67,-3.14,-1692.16,-223.9
NBY,Newbury,51.4,-1.32,-207.73,125.79
NRC,Newbury Racecourse,51.4,-1.31,-195.44,124.73
NCL,Newcastle,54.97,-1.62,-447.86,-4530.24
NEW,Newcraighall,55.93,-3.09,-1651.25,-5790.72
NVH,Newhaven Harbour,50.79,0.05,916.06,918.44
NVN,Newhaven Town,50.79,0.05,916.02,911.84
NGT,Newington,51.35,0.67,1416.5,183.56
NMK,Newmarket,52.24,0.41,1202.51,-969.98
NWE,Newport (Essex),51.98,0.22,1046.67,-633.44
NWP,Newport (S. Wales),51.59,-3,-1574.5,-124.71
NQY,Newquay,50.42,-5.08,-3268.55,1407.05
NSD,Newstead,53.07,-1.22,-125.75,-2057.2
NTA,Newton Abbot,50.53,-3.6,-2064.3,1257.76
NAY,Newton Aycliffe,54.61,-1.59,-425.32,-4067.96
NWN,Newton for Hyde,53.46,-2.07,-814.62,-2559.22
NTN,Newton (Lanarks),55.82,-4.13,-2499.71,-5639.36
NTC,Newton St Cyres,50.78,-3.59,-2056.33,932.61
NLW,Newton-le-Willows,53.45,-2.61,-1260.45,-2554.49
NWR,Newtonmore,57.06,-4.12,-2488.34,-7256.78
NOA,Newton-on-Ayr,55.47,-4.63,-2901.62,-5189.84
NWT,Newtown (Powys),52.51,-3.31,-1829.58,-1327.75
NNP,Ninian Park,51.48,-3.2,-1739.87,23.04
NIT,Nitshill,55.81,-4.36,-2684.78,-5630.42
NBT,Norbiton,51.41,-0.28,639.49,106.43
NRB,Norbury,51.41,-0.12,771.76,107.79
NSB,Normans Bay,50.83,0.39,1188.86,871.09
NOR,Normanton,53.7,-1.42,-289.8,-2876.36
NBW,North Berwick,56.06,-2.73,-1355.99,-5950.05
NCM,North Camp,51.28,-0.73,274.83,284.68
NDL,North Dulwich,51.45,-0.09,799.5,51.63
NFA,North Fambridge,51.65,0.68,1427.17,-201.44
NLR,North Llanrwst,53.14,-3.8,-2230.32,-2151.25
NQU,North Queensferry,56.01,-3.39,-1897.42,-5891.96
NRD,North Road,54.54,-1.55,-396.21,-3966.89
NSH,North Sheen,51.47,-0.29,637.59,37.43
NWA,North Walsham,52.82,1.38,2000.37,-1724.94
NWB,North Wembley,51.56,-0.3,623.27,-89.31
NTR,Northallerton,54.33,-1.44,-304.3,-3702.01
NMP,Northampton,52.24,-0.91,131.73,-969.39
NFD,Northfield,52.41,-1.97,-732.15,-1191.97
NFL,Northfleet,51.45,0.32,1135.73,62.93
NLT,Northolt Park,51.56,-0.36,578.06,-82.84
NUM,Northumberland Park,51.6,-0.05,827.5,-140.3
NWI,Northwich,53.26,-2.5,-1165.29,-2304.63
NTB,Norton Bridge,52.87,-2.19,-915.41,-1789.88
NRW,Norwich,52.63,1.31,1937.05,-1477.52
NWD,Norwood Junction,51.4,-0.08,809.85,126.61
NOT,Nottingham,52.95,-1.15,-64.2,-1894.8
NUN,Nuneaton,52.53,-1.46,-322.74,-1346.09
NHD,Nunhead,51.47,-0.05,828.22,35.39
NNT,Nunthorpe,54.53,-1.17,-82.6,-3956.04
NUT,Nutbourne,50.85,-0.88,151.06,845.06
NUF,Nutfield,51.23,-0.13,762.11,348.49
OKN,Oakengates,52.69,-2.45,-1127.18,-1563.89
OKM,Oakham,52.67,-0.73,272.42,-1536.28
OKL,Oakleigh Park,51.64,-0.17,735.64,-187.22
OBN,Oban,56.41,-5.47,-3593.33,-6413.53
OCK,Ockendon,51.52,0.29,1108.11,-36.36
OLY,Ockley,51.15,-0.34,597.16,446.76
OKE,Okehampton,0,0,871.2,67148.32
OHL,Old Hill,52.47,-2.06,-805.83,-1273.79
ORN,Old Roan,53.49,-2.95,-1535.7,-2598.61
OLD,Old Street,51.53,-0.09,799,-41.37
OLF,Oldfield Park,51.38,-2.38,-1070.17,149.84
OLM,Oldham Mumps,53.54,-2.1,-843.28,-2669.24
OLW,Oldham Werneth,53.54,-2.13,-865.43,-2666.16
OLT,Olton,52.44,-1.8,-600.4,-1231.51
ORE,Ore,50.87,0.59,1353.69,817.83
OMS,Ormskirk,53.57,-2.88,-1479.19,-2705.62
ORP,Orpington,51.37,0.09,943.82,157.25
ORR,Orrell,53.53,-2.71,-1338.5,-2654.72
OPK,Orrell Park,53.46,-2.96,-1545.69,-2566.01
OTF,Otford,51.31,0.2,1031.7,235.96
OUN,Oulton Broad North,52.48,1.72,2270.55,-1282.7
OUS,Oulton Broad South,52.47,1.71,2264.23,-1272.23
OUT,Outwood,53.72,-1.51,-360.31,-2896.08
OVE,Overpool,53.28,-2.92,-1514.28,-2334.21
OVR,Overton,51.25,-1.26,-156.47,313.03
OXN,Oxenholme Lake District,54.31,-2.72,-1349.07,-3665.72
OXF,Oxford,51.75,-1.27,-164.74,-338.24
OXS,Oxshott,51.34,-0.36,575.62,205.66
OXT,Oxted,51.26,0,867.27,308.01
PDW,Paddock Wood,51.18,0.39,1188.6,406.65
PDG,Padgate,53.41,-2.56,-1214.13,-2492.85
PGN,Paignton,50.43,-3.56,-2035.87,1381.46
PCN,Paisley Canal,55.84,-4.42,-2736.85,-5667.13
PYG,Paisley Gilmour Street,55.85,-4.42,-2737.43,-5676.6
PYJ,Paisley St James,55.85,-4.44,-2752.05,-5682.82
PAL,Palmers Green,51.62,-0.11,781.21,-162.61
PAN,Pangbourne,51.49,-1.09,-18.18,11.36
PNL,Pannal,53.96,-1.53,-379.49,-3213.35
PTF,Pantyffynnon,51.78,-4,-2389.13,-371.34
PAR,Par,50.36,-4.7,-2965.97,1484.99
PBL,Parbold,53.59,-2.77,-1388.5,-2734.28
PKT,Park Street,51.73,-0.34,593.67,-301.68
PKS,Parkstone (Dorset),50.72,-1.95,-718.37,1005.4
PSN,Parson Street,51.43,-2.61,-1256.14,78.98
PTK,Partick,55.87,-4.31,-2643.06,-5706
PRN,Parton,54.57,-3.58,-2050.3,-4010.83
PWY,Patchway,51.53,-2.56,-1218.93,-41.49
PAT,Patricroft,53.49,-2.36,-1051.14,-2596.28
PTT,Patterton,55.79,-4.33,-2664.33,-5602.34
PEA,Peartree,52.9,-1.47,-329.92,-1830.76
PMR,Peckham Rye,51.47,-0.07,814.6,31.39
PEG,Pegswood,55.18,-1.64,-470.04,-4803.37
PEM,Pemberton,53.53,-2.67,-1305.9,-2655.25
PBY,Pembrey & Burry Port,51.68,-4.25,-2593.36,-247
PMB,Pembroke,51.67,-4.91,-3130.19,-233.2
PMD,Pembroke Dock,51.69,-4.94,-3156.3,-260.55
PNA,Penally,51.66,-4.72,-2980.14,-214.91
PEN,Penarth,51.44,-3.17,-1717.89,75.92
PCD,Pencoed,51.52,-3.5,-1983.81,-39.77
PGM,Pengam,51.67,-3.23,-1763.28,-229.95
PNE,Penge East,51.42,-0.05,827.04,97.51
PNW,Penge West,51.42,-0.06,821.58,99.83
PHG,Penhelig,52.55,-4.04,-2419.78,-1371.28
PNS,Penistone,53.53,-1.62,-452.15,-2648.96
PKG,Penkridge,52.72,-2.12,-857.3,-1603.14
PMW,Penmaenmawr,53.27,-3.92,-2328.82,-2316.39
PNM,Penmere,50.15,-5.08,-3274.5,1753
PER,Penrhiwceiber,51.67,-3.36,-1869.18,-229.26
PRH,Penrhyndeudraeth,52.93,-4.06,-2443.87,-1870.89
PNR,Penrith,54.66,-2.76,-1378.25,-4130.68
PYN,Penryn,50.17,-5.11,-3297.28,1726.29
PES,Pensarn (Gwynedd),52.83,-4.11,-2482.69,-1742.94
PHR,Penshurst,51.2,0.17,1012.69,387
PTB,Pentre-Bach,51.73,-3.36,-1871.12,-301.1
PNY,Pen-y-Bont,52.27,-3.32,-1838.17,-1016.91
BPC,Penychain,52.9,-4.34,-2667.48,-1837.06
PNF,Penyffordd,53.14,-3.05,-1620.34,-2150.3
PNZ,Penzance,50.12,-5.53,-3641.08,1789.65
PRW,Perranwell,50.22,-5.11,-3298.02,1666.02
PRY,Perry Barr,52.52,-1.9,-680.04,-1333.19
PSH,Pershore,52.13,-2.07,-818.35,-829.58
PTH,Perth,56.39,-3.44,-1934.5,-6387.74
PBO,Peterborough,52.57,-0.25,667.44,-1409.47
PTR,Petersfield,51.01,-0.94,103.6,635.56
PET,Petts Wood,51.39,0.07,931.95,137.56
PEV,Pevensey & Westham,50.82,0.32,1136.12,884.53
PEB,Pevensey Bay,50.82,0.34,1150.89,882.36
PEW,Pewsey,51.34,-1.77,-572.96,198.11
PIL,Pilning,51.56,-2.63,-1271.48,-81.51
PIN,Pinhoe,50.74,-3.47,-1960.17,986.53
PIT,Pitlochry,56.7,-3.74,-2175.53,-6791.73
PSE,Pitsea,51.56,0.51,1284.14,-86.39
PLS,Pleasington,53.73,-2.54,-1203.79,-2916.86
PLK,Plockton,57.33,-5.67,-3749.99,-7614.62
PLC,Pluckley,51.16,0.75,1480.79,440.28
PLM,Plumley,53.27,-2.42,-1102.28,-2321.87
PMP,Plumpton,50.93,-0.06,822.12,737.35
PLU,Plumstead,51.49,0.08,939.93,5.62
PLY,Plymouth,50.38,-4.14,-2508.13,1455.65
POK,Pokesdown,50.73,-1.83,-617.36,995
PLG,Polegate,50.82,0.25,1071.62,877.45
PSW,Polesworth,52.63,-1.61,-441.88,-1475.9
PWE,Pollokshaws East,55.82,-4.29,-2625.64,-5647.09
PWW,Pollokshaws West,55.82,-4.3,-2637.18,-5645.93
PLE,Pollokshields East,55.84,-4.27,-2610.27,-5668.41
PLW,Pollokshields West,55.84,-4.28,-2616.1,-5664.02
PMT,Polmont,55.98,-3.71,-2158.73,-5855.76
POL,Polsloe Bridge,50.73,-3.5,-1984.62,995
PON,Ponders End,51.64,-0.03,843.08,-193.82
PTD,Pontarddulais,51.72,-4.05,-2428.37,-291.46
PFR,Pontefract Baghill,53.69,-1.3,-191.82,-2865.91
PFM,Pontefract Monkhill,53.7,-1.3,-191.23,-2875.28
POT,Pontefract Tanshelf,53.69,-1.32,-204.51,-2868.84
PLT,Pontlottyn,51.75,-3.28,-1803.13,-329.29
PYC,Pontyclun,51.52,-3.39,-1896.08,-38.68
PYP,Pont-y-Pant,53.07,-3.86,-2279.25,-2048.64
PPL,Pontypool & New Inn,51.7,-3.01,-1587.23,-265.82
PPD,Pontypridd,51.6,-3.34,-1854.04,-137.25
POO,Poole,50.72,-1.98,-746.4,1010.2
POP,Poppleton,53.98,-1.15,-65.59,-3236.5
PTG,Port Glasgow,55.93,-4.69,-2953.81,-5788.97
PSL,Port Sunlight,53.35,-3,-1574,-2419.13
PTA,Port Talbot Parkway,51.59,-3.78,-2212.86,-127.28
PTC,Portchester,50.85,-1.12,-45.73,841.57
POR,Porth,51.61,-3.41,-1907.72,-154.42
PTM,Porthmadog,52.93,-4.13,-2500.87,-1873.62
PLN,Portlethen,57.06,-2.13,-863.27,-7259.7
PLD,Portslade,50.84,-0.21,703.74,858.6
PMS,Portsmouth & Southsea,50.8,-1.09,-18.55,907.1
PMA,Portsmouth Arms,50.96,-3.95,-2350.92,700.39
PMH,Portsmouth Harbour,50.8,-1.11,-32.35,909.1
PPK,Possilpark & Parkhouse,55.89,-4.26,-2601.65,-5732.54
PBR,Potters Bar,51.7,-0.19,714.31,-264.95
PFY,Poulton-le-Fylde,53.85,-2.99,-1567.68,-3069.66
PYT,Poynton,53.35,-2.13,-869.62,-2420.6
PRS,Prees,52.9,-2.69,-1322.56,-1832.82
PSC,Prescot,53.42,-2.8,-1411.81,-2516.01
PRT,Prestatyn,53.34,-3.41,-1907.66,-2402.5
PRB,Prestbury,53.29,-2.15,-878.65,-2346.27
PRE,Preston,53.76,-2.71,-1337.55,-2950.64
PRP,Preston Park,50.85,-0.16,744.65,845.22
PST,Prestonpans,55.95,-2.97,-1555.02,-5814.51
PRA,Prestwick International Airport,55.51,-4.61,-2892.11,-5235.46
PTW,Prestwick Town,55.5,-4.62,-2892.91,-5225.89
PTL,Priesthill & Darnley,55.81,-4.34,-2670.86,-5630.74
PRR,Princes Risborough,51.72,-0.84,182.93,-291.77
PRL,Prittlewell,51.55,0.71,1450.84,-73.78
PRU,Prudhoe,54.97,-1.86,-649.78,-4527.53
PUL,Pulborough,50.96,-0.52,449.9,699.94
PFL,Purfleet,51.48,0.24,1064.32,17.07
PUR,Purley,51.34,-0.11,778.54,204.36
PUO,Purley Oaks,51.35,-0.1,790.58,191.77
PUT,Putney,51.46,-0.22,694.64,42.78
PWL,Pwllheli,52.89,-4.42,-2731.08,-1817.44
PYL,Pyle,51.53,-3.7,-2144.95,-41.24
QYD,Quakers Yard,51.66,-3.32,-1838.89,-217.26
QBR,Queenborough,51.42,0.75,1482.64,102.33
QPK,Queens Park (Glasgow),55.84,-4.27,-2609.23,-5661.41
QPW,Queens Park (London),51.53,-0.2,704.02,-51.98
QRP,Queens Road Peckham,51.47,-0.06,824.24,26.13
QRB,Queenstown Road (Battersea),51.47,-0.15,751.44,25.42
QUI,Quintrel Downs,50.4,-5.03,-3231.11,1421.54
RDF,Radcliffe (Notts),52.95,-1.04,25.77,-1897.06
RDT,Radlett,51.69,-0.32,612.46,-249.17
RAD,Radley,51.69,-1.24,-140.53,-250.5
RDR,Radyr,51.52,-3.25,-1777.88,-29.21
RNF,Rainford,53.52,-2.79,-1403.89,-2638
RNM,Rainham (Essex),51.52,0.19,1026.77,-30.31
RAI,Rainham (Kent),51.37,0.61,1369.81,166.66
RNH,Rainhill,53.42,-2.77,-1385.08,-2507.62
RAM,Ramsgate,51.34,1.41,2017.98,199.62
RGW,Ramsgreave & Wilpshire,53.78,-2.48,-1150.47,-2980.87
RAN,Rannoch,56.69,-4.58,-2861.69,-6770.26
RAU,Rauceby,52.99,-0.46,498.79,-1944.41
RAV,Ravenglass for Eskdale,54.36,-3.41,-1909.15,-3731.41
RVB,Ravensbourne,51.41,-0.01,865.56,104.64
RVN,Ravensthorpe,53.68,-1.66,-479.09,-2844.58
RWC,Rawcliffe,53.69,-0.96,87.53,-2862.21
RLG,Rayleigh,51.59,0.6,1361.08,-124.33
RAY,Raynes Park,51.41,-0.23,683.61,110.52
RDG,Reading,51.46,-0.97,78.56,46.07
RDW,Reading West,51.46,-0.99,63.52,50.41
REC,Rectory Road,51.56,-0.07,815.42,-84.33
RDB,Redbridge,50.92,-1.47,-327.87,748.73
RCC,Redcar Central,54.62,-1.07,-2.2,-4071.25
RCE,Redcar East,54.61,-1.05,12.95,-4062.15
RDN,Reddish North,53.45,-2.16,-887.44,-2549.74
RDS,Reddish South,53.44,-2.16,-888.75,-2533.44
RDC,Redditch,52.31,-1.95,-715.34,-1059.15
RDH,Redhill,51.24,-0.17,735.89,331.1
RDA,Redland,51.47,-2.6,-1248.65,33.54
RED,Redruth,50.23,-5.23,-3391.1,1644.17
REE,Reedham (Norfolk),52.56,1.56,2143.26,-1395.82
RHM,Reedham (Surrey),51.33,-0.12,770.17,211.18
REI,Reigate,51.24,-0.2,704.96,328.81
RTN,Renton,55.97,-4.59,-2869.23,-5837.11
RET,Retford,53.32,-0.95,98.11,-2374.67
RHI,Rhiwbina,51.52,-3.21,-1750.12,-35.3
RIA,Rhoose Cardiff International Airport,51.39,-3.35,-1860.57,139.59
RHO,Rhosneigr,53.23,-4.51,-2804.44,-2269.93
RHL,Rhyl,53.32,-3.49,-1974.52,-2378.93
RHY,Rhymney,51.76,-3.29,-1811.56,-345.2
RHD,Ribblehead,54.21,-2.36,-1054.31,-3536.11
RIL,Rice Lane,53.46,-2.96,-1544.87,-2560.63
RMD,Richmond,51.46,-0.3,625.67,40.44
RIC,Rickmansworth,51.64,-0.47,485.2,-190.56
RDD,Riddlesdown,51.33,-0.1,790.09,210.52
RID,Ridgmont,52.03,-0.59,386.29,-694.12
RDM,Riding Mill,54.95,-1.97,-736.16,-4505.24
RCA,Risca & Pontymister,51.61,-3.09,-1650.82,-145.7
RIS,Rishton,53.76,-2.42,-1102.68,-2959.36
RBR,Robertsbridge,50.98,0.47,1253.54,663.97
ROB,Roby,53.41,-2.86,-1458.1,-2498.39
RCD,Rochdale,53.61,-2.15,-885.21,-2759.54
ROC,Roche,50.42,-4.83,-3068.33,1402.9
RTR,Rochester,51.39,0.51,1287.39,141.56
RFD,Rochford,51.58,0.7,1444.01,-114.26
RFY,Rock Ferry,53.37,-3.01,-1584.5,-2449.93
ROG,Rogart,57.99,-4.16,-2520.22,-8468.94
ROR,Rogerstone,51.6,-3.07,-1629.95,-132.36
ROL,Rolleston,53.07,-0.9,138.17,-2049.41
RMB,Roman Bridge,53.04,-3.92,-2327.3,-2021.62
RMF,Romford,51.57,0.18,1020.66,-105.26
RML,Romiley,53.41,-2.09,-832.73,-2503.76
ROM,Romsey,50.99,-1.49,-346.61,654.07
ROO,Roose,54.12,-3.19,-1734.3,-3417.86
RSG,Rose Grove,53.79,-2.28,-990.22,-2989.54
RSH,Rose Hill Marple,53.4,-2.08,-821.9,-2480.21
ROS,Rosyth,56.05,-3.43,-1924.11,-5935.02
RMC,Rotherham Central,53.43,-1.36,-238.37,-2527.36
RNR,Roughton Road,52.92,1.3,1931.32,-1856.81
RLN,Rowlands Castle,50.89,-0.96,90.29,784.94
ROW,Rowley Regis,52.48,-2.03,-785.18,-1282.12
RYB,Roy Bridge,56.89,-4.84,-3074.05,-7034.08
RYN,Roydon,51.78,0.04,900.78,-366.92
RYS,Royston,52.05,-0.03,849.25,-728.91
RUA,Ruabon,52.96,-3.04,-1610.26,-1911.76
RUF,Rufford,53.64,-2.81,-1418.14,-2791.75
RUG,Rugby,52.38,-1.25,-148.69,-1154.04
RGT,Rugeley Town,52.75,-1.94,-708.48,-1643.41
RGL,Rugeley Trent Valley,52.77,-1.93,-702.54,-1663.8
RUN,Runcorn,53.34,-2.74,-1362.93,-2405.36
RUE,Runcorn East,53.33,-2.67,-1302.44,-2390.01
RKT,Ruskington,53.04,-0.38,560.66,-2017.78
RUS,Ruswarp,54.47,-0.63,359.19,-3880.82
RUT,Rutherglen,55.83,-4.21,-2564.19,-5654.76
RYR,Ryde St Johns Road,50.72,-1.16,-72.1,1003.77
RYD,Ryde Esplanade,50.73,-1.16,-74.71,992.68
RYP,Ryde Pier Head,50.74,-1.16,-75,984.44
RRB,Ryder Brow,53.46,-2.17,-901.47,-2559.79
RYE,Rye,50.95,0.73,1467.16,706.43
RYH,Rye House,51.77,0.01,875.8,-359
SFD,Salford Central,53.48,-2.26,-968.41,-2593.22
SLD,Salford Crescent,53.49,-2.28,-984.9,-2598.2
SAF,Salfords,51.2,-0.16,738.68,381.25
SAH,Salhouse,52.68,1.39,2006.05,-1540.66
SAL,Salisbury,51.07,-1.81,-602.09,552.33
SAE,Saltaire,53.84,-1.79,-590.04,-3057.6
STS,Saltash,50.41,-4.21,-2561.79,1417.14
SLB,Saltburn,54.58,-0.97,76.69,-4028.51
SLT,Saltcoats,55.63,-4.78,-3030.86,-5398.25
SAM,Saltmarshe,53.72,-0.81,210.56,-2905.62
SLW,Salwick,53.78,-2.82,-1428.61,-2983.03
SMC,Sampford Courtenay,0,0,871.2,67148.32
SNA,Sandal & Agbrigg,53.66,-1.48,-337.1,-2828.41
SDB,Sandbach,53.15,-2.39,-1080.95,-2159.53
SNR,Sanderstead,51.35,-0.09,794.8,190.16
SDL,Sandhills,53.43,-2.99,-1568.67,-2524.33
SND,Sandhurst,51.35,-0.8,215.53,192.52
SDG,Sandling,51.09,1.07,1740.68,526.48
SAN,Sandown,50.66,-1.16,-76.84,1091.78
SDP,Sandplace,50.39,-4.46,-2770.06,1444.01
SAD,Sandwell & Dudley,52.51,-2.01,-769.58,-1322.93
SDW,Sandwich,51.27,1.34,1966.21,292.36
SDY,Sandy,52.12,-0.28,641.86,-822.35
SNK,Sankey for Penketh,53.39,-2.65,-1290.52,-2475.47
SQH,Sanquhar,55.37,-3.92,-2329.64,-5054.38
SRR,Sarn,51.54,-3.59,-2056.75,-58.17
SDF,Saundersfoot,51.72,-4.72,-2975.67,-297.29
SDR,Saunderton,51.68,-0.83,197.95,-237.06
SAW,Sawbridgeworth,51.81,0.16,1002.04,-417.59
SXY,Saxilby,53.27,-0.66,329.61,-2312.14
SAX,Saxmundham,52.21,1.49,2086.59,-939.93
SCA,Scarborough,54.28,-0.41,540.31,-3632.54
SCT,Scotscalder,58.48,-3.55,-2025.87,-9113.48
SCH,Scotstounhill,55.89,-4.35,-2679.01,-5725.89
SCU,Scunthorpe,53.59,-0.65,340.26,-2728.08
SML,Sea Mills,51.48,-2.65,-1290.23,19.01
SEF,Seaford,50.77,0.1,952.87,940.54
SFL,Seaforth & Litherland,53.47,-3.01,-1579.92,-2571.49
SEA,Seaham,54.84,-1.34,-222.46,-4358.67
SEM,Seamer,54.24,-0.42,531.07,-3581.64
SSC,Seascale,54.4,-3.48,-1971.07,-3783.6
SEC,Seaton Carew,54.66,-1.2,-107.87,-4126.13
SRG,Seer Green & Jordans,51.61,-0.61,375.78,-150.69
SBY,Selby,53.78,-1.06,3.76,-2985.21
SRS,Selhurst,51.39,-0.09,799.47,133.55
SEL,Sellafield,54.42,-3.51,-1991.93,-3810.91
SEG,Selling,51.28,0.94,1638.59,282.64
SLY,Selly Oak,52.44,-1.94,-707.65,-1236.03
SET,Settle,54.07,-2.28,-988.95,-3354.95
SVK,Seven Kings,51.56,0.1,949.76,-91.2
SVS,Seven Sisters,51.58,-0.07,810.12,-115.27
SEV,Sevenoaks,51.28,0.18,1019.38,283.29
SVB,Severn Beach,51.56,-2.66,-1301.78,-85.34
STJ,Severn Tunnel Junction,51.58,-2.78,-1394.46,-118.09
SFR,Shalford,51.21,-0.57,408.92,364.85
SHN,Shanklin,50.63,-1.18,-91.07,1121.71
SHA,Shaw & Crompton,53.58,-2.09,-833.13,-2716.96
SHW,Shawford,51.02,-1.33,-212.08,615.87
SHL,Shawlands,55.83,-4.29,-2629.63,-5652.95
SSS,Sheerness-on-Sea,51.44,0.76,1489.87,69.18
SHF,Sheffield,53.38,-1.46,-321.29,-2456.9
SED,Shelford,52.15,0.14,985.37,-853.77
SNF,Shenfield,51.63,0.33,1140.23,-178.35
SEN,Shenstone,52.64,-1.84,-633.41,-1493.01
SPB,Shepherd's Bush,51.51,-0.22,693.68,-14.58
SPH,Shepherds Well,51.19,1.23,1874.32,398.65
SPY,Shepley,53.59,-1.7,-518.6,-2732
SHP,Shepperton,51.4,-0.45,506.81,126.88
STH,Shepreth,52.11,0.03,896.75,-808.56
SHE,Sherborne,50.94,-2.51,-1178.47,717.34
SIE,Sherburn-in-Elmet,53.8,-1.23,-134.18,-3003.19
SHM,Sheringham,52.94,1.21,1859.16,-1886.59
SLS,Shettleston,55.85,-4.16,-2521.72,-5684.67
SDM,Shieldmuir,55.78,-3.96,-2356.12,-5585.52
SFN,Shifnal,52.67,-2.37,-1063.28,-1528.26
SHD,Shildon,54.63,-1.64,-464.37,-4085.03
SHI,Shiplake,51.51,-0.88,151.41,-22.31
SHY,Shipley,53.83,-1.77,-575.07,-3049.58
SPP,Shippea Hill,52.43,0.41,1208.33,-1220.71
SIP,Shipton,51.87,-1.59,-427.81,-484.49
SHB,Shirebrook,53.2,-1.2,-109.51,-2230.04
SHH,Shirehampton,51.48,-2.68,-1313.19,12.41
SRO,Shireoaks,53.32,-1.17,-81.6,-2387.28
SRL,Shirley,52.4,-1.85,-633.72,-1185.76
SRY,Shoeburyness,51.53,0.8,1519.9,-48.07
SHO,Sholing,50.9,-1.36,-241.57,778.97
SEH,Shoreham (Kent),51.33,0.19,1025.27,211.11
SSE,Shoreham-by-Sea,50.83,-0.27,649.59,860.23
SRT,Shortlands,51.41,0,873.47,115.41
SHT,Shotton,53.21,-3.04,-1606.95,-2240.85
SHS,Shotts,55.82,-3.8,-2226.71,-5639.19
SHR,Shrewsbury,52.71,-2.75,-1370.84,-1587.36
SID,Sidcup,51.43,0.1,955.47,77.84
SIL,Sileby,52.73,-1.11,-33.84,-1612.93
SIC,Silecroft,54.23,-3.34,-1849.12,-3562.68
SLK,Silkstone Common,53.53,-1.56,-403.97,-2661.24
SLV,Silver Street,51.62,-0.07,811.95,-157.95
SVR,Silverdale,54.17,-2.8,-1415.61,-3489.25
SIN,Singer,55.91,-4.41,-2721.91,-5755.27
SIT,Sittingbourne,51.34,0.73,1470.42,198.39
SKG,Skegness,53.14,0.33,1143.53,-2150.25
SKE,Skewen,51.66,-3.85,-2266.03,-218.13
SKI,Skipton,53.96,-2.03,-781.11,-3213.83
SGR,Slade Green,51.47,0.19,1026.58,34.32
SWT,Slaithwaite,53.62,-1.88,-663.42,-2777.17
SLA,Slateford,55.93,-3.24,-1774.16,-5780.07
SLR,Sleaford,53,-0.41,536.52,-1957.8
SLH,Sleights,54.46,-0.66,330.88,-3868.9
SLO,Slough,51.51,-0.59,388.77,-23.17
SMA,Small Heath,52.46,-1.86,-645.32,-1264.44
SAB,Smallbrook Junction,50.71,-1.16,-70.88,1020.9
SGB,Smethwick Galton Bridge,52.5,-1.98,-744.09,-1314.01
SMR,Smethwick Rolfe Street,52.5,-1.97,-736.06,-1306.98
SMI,Smitham,51.32,-0.13,761.65,223.86
SMB,Smithy Bridge,53.63,-2.11,-852.47,-2789.13
SNI,Snaith,53.69,-1.03,32.39,-2867.52
SDA,Snodland,51.33,0.45,1236.79,213.7
SWO,Snowdown,51.22,1.21,1861.11,363.57
SOR,Sole Street,51.38,0.38,1179.58,144.7
SOL,Solihull,52.41,-1.79,-587.42,-1200.07
SYT,Somerleyton,52.51,1.65,2218.8,-1325.05
SAT,South Acton,51.5,-0.27,650.86,-7.29
SBK,South Bank,54.58,-1.18,-88.48,-4029
SBM,South Bermondsey,51.49,-0.05,826.61,7.79
SCY,South Croydon,51.36,-0.09,794.98,171.01
SES,South Elmsall,53.59,-1.28,-176.73,-2739.07
SGN,South Greenford,51.53,-0.34,596.63,-50.99
SGL,South Gyle,55.94,-3.3,-1819.85,-5792.68
SOH,South Hampstead,51.54,-0.18,725.66,-61.76
SOK,South Kenton,51.57,-0.31,619.62,-99.25
SMO,South Merton,51.4,-0.21,703.59,118.51
SOM,South Milford,53.78,-1.25,-148.73,-2983.86
SRU,South Ruislip,51.56,-0.4,545.57,-81.91
STO,South Tottenham,51.58,-0.07,812.64,-112.55
SWS,South Wigston,52.58,-1.13,-53.76,-1418.93
SOF,South Woodham Ferrers,51.65,0.61,1366,-202.85
STL,Southall,51.51,-0.38,562.4,-15.45
SOA,Southampton Airpt Parkway,50.95,-1.36,-240.55,708.47
SOU,Southampton Central,50.91,-1.41,-281.73,765.02
SOB,Southbourne,50.85,-0.91,130.54,842.18
SBU,Southbury,51.65,-0.05,827.96,-201.26
SEE,Southease,50.83,0.03,896.2,864.24
SOC,Southend Central,51.54,0.71,1451.7,-56.02
SOE,Southend East,51.54,0.73,1468.08,-58.5
SOV,Southend Victoria,51.54,0.71,1451.51,-61.82
SMN,Southminster,51.66,0.84,1552.4,-217.14
SOP,Southport,53.65,-3,-1577.59,-2806.75
SWK,Southwick,50.83,-0.24,677.84,862.76
SOW,Sowerby Bridge,53.71,-1.91,-684.11,-2886.79
SPA,Spalding,52.79,-0.16,743.25,-1688.31
SBR,Spean Bridge,56.89,-4.92,-3142.86,-7036.23
SPI,Spital,53.34,-2.99,-1570.64,-2406.98
SPO,Spondon,52.91,-1.41,-279.69,-1848.78
SPN,Spooner Row,52.54,1.09,1757.34,-1357.35
SRI,Spring Road,52.44,-1.84,-627.37,-1237.9
SPR,Springburn,55.88,-4.23,-2577.25,-5721.41
SPF,Springfield,56.29,-3.05,-1618.38,-6260.3
SQU,Squires Gate,53.78,-3.05,-1615.91,-2976.6
SAC,St Albans,51.75,-0.33,604.06,-334.3
SAA,St Albans Abbey,51.74,-0.34,591.8,-326.82
SAR,St Andrews Road,51.51,-2.7,-1328.23,-24.37
SAS,St Annes-on-the-Sea,53.75,-3.03,-1599.36,-2946.12
SAU,St Austell,50.34,-4.79,-3035.04,1505.6
SBS,St Bees,54.49,-3.59,-2057.93,-3910.01
SBF,St Budeaux Ferry Road,50.4,-4.19,-2543.43,1424.91
SBV,St Budeaux Victoria Road,50.4,-4.19,-2544.6,1423.89
SCR,St Columb Road,50.4,-4.94,-3158.54,1427.95
SDN,St Denys,50.92,-1.39,-261.01,745.97
SER,St Erth,50.17,-5.44,-3569.19,1726.02
SGM,St Germans,50.39,-4.31,-2642.77,1434.2
SNH,St Helens Central,53.45,-2.73,-1355.64,-2554.57
SHJ,St Helens Junction,53.43,-2.7,-1330.81,-2529.02
SIH,St Helier,51.39,-0.2,708.79,135.76
SIV,St Ives (Cornwall),50.21,-5.48,-3595.67,1676.25
SJP,St James Park,50.73,-3.52,-2002.29,995.51
SJS,St James Street,51.58,-0.03,844.43,-112.87
SAJ,St Johns,51.47,-0.02,852.25,32.75
SKN,St Keyne Wishing Well Halt,50.42,-4.46,-2767.69,1396.66
SLQ,St Leonards Warrior Square,50.86,0.56,1328.36,832.27
SMG,St Margarets (Gr London),51.46,-0.32,609.92,50.86
SMT,St Margarets (Herts),51.79,0,872.24,-383.03
SMY,St Mary Cray,51.39,0.11,958.68,129.53
STM,St Michaels,53.38,-2.95,-1537.11,-2453.49
SNO,St Neots,52.23,-0.25,669.41,-961.67
STA,Stafford,52.8,-2.12,-859.53,-1707.98
SNS,Staines,51.43,-0.5,460.83,80.39
SLL,Stallingborough,53.59,-0.18,721.4,-2729.28
SYB,Stalybridge,53.48,-2.06,-810.48,-2595.33
SMD,Stamford,52.65,-0.48,479.3,-1503.9
SMH,Stamford Hill,51.57,-0.08,808.66,-104.79
SFO,Stanford-le-Hope,51.51,0.42,1216.23,-26.41
SNT,Stanlow & Thornton,53.28,-2.84,-1446.05,-2326.58
SSD,Stansted Airport,51.89,0.26,1083.92,-514.41
SST,Stansted Mountfitchet,51.9,0.2,1034.11,-530.99
SPU,Staplehurst,51.17,0.55,1320.14,420.72
SRD,Stapleton Road,51.47,-2.57,-1221.81,34.69
SBE,Starbeck,54,-1.5,-353.13,-3266.39
SCS,Starcross,50.63,-3.45,-1940.77,1129.69
SVL,Staveley (Cumbria),54.38,-2.82,-1428.3,-3757.26
SCF,Stechford,52.48,-1.81,-605.88,-1291.9
SON,Steeton & Silsden,53.9,-1.94,-714.42,-3137.63
SPS,Stepps,55.89,-4.14,-2506.02,-5732.11
SVG,Stevenage,51.9,-0.21,702.28,-531.49
STV,Stevenston,55.63,-4.75,-3003.54,-5398.77
SWR,Stewartby,52.07,-0.52,446.53,-749.78
STT,Stewarton,55.68,-4.52,-2813.72,-5461.2
STG,Stirling,56.12,-3.94,-2338.69,-6031.9
SPT,Stockport,53.41,-2.16,-892.95,-2492.53
SKS,Stocksfield,54.95,-1.92,-692.11,-4502.63
SSM,Stocksmoor,53.59,-1.72,-534.46,-2738.74
STK,Stockton,54.57,-1.32,-204.52,-4011.28
SKM,Stoke Mandeville,51.79,-0.78,231.7,-382.97
SKW,Stoke Newington,51.57,-0.07,811.76,-92.75
SOT,Stoke-on-Trent,53.01,-2.18,-907.61,-1974.11
SNE,Stone,52.91,-2.16,-886.45,-1844.22
SCG,Stone Crossing,51.45,0.26,1086.34,55.78
SBP,Stonebridge Park,51.54,-0.28,646.23,-65.21
SOG,Stonegate,51.02,0.36,1167.98,618.28
STN,Stonehaven,56.97,-2.23,-943.76,-7136.41
SHU,Stonehouse,51.75,-2.28,-987.97,-328.31
SNL,Stoneleigh,51.36,-0.25,668.39,170.44
SBJ,Stourbridge Junction,52.45,-2.13,-869.17,-1243.34
SBT,Stourbridge Town,52.46,-2.14,-875.67,-1253.77
SMK,Stowmarket,52.19,1,1686.81,-907.08
STR,Stranraer,54.91,-5.02,-3226.97,-4453.8
SRA,Stratford (London),51.54,0,868.22,-61.63
SAV,Stratford-upon-Avon,52.19,-1.72,-528.61,-912.99
STC,Strathcarron,57.42,-5.43,-3556.54,-7730.96
STW,Strawberry Hill,51.44,-0.34,594.21,70.91
STE,Streatham,51.43,-0.13,763.91,89.06
SRC,Streatham Common,51.42,-0.14,760.15,98.35
SRH,Streatham Hill,51.44,-0.13,766.67,72.72
SHC,Streethouse,53.68,-1.4,-270.55,-2845.61
SRN,Strines,53.38,-2.03,-786.57,-2452.81
STF,Stromeferry,57.35,-5.55,-3654.93,-7639.15
SOO,Strood,51.4,0.5,1279.16,127.22
STD,Stroud,51.74,-2.22,-938.94,-326.61
STU,Sturry,51.3,1.12,1786.52,251.72
SYA,Styal,53.35,-2.24,-956.12,-2417.92
SUY,Sudbury,52.04,0.74,1471.04,-707
SUD,Sudbury & Harrow Road,51.55,-0.32,613.49,-78.75
SDH,Sudbury Hill Harrow,51.56,-0.34,597.02,-83.82
SUG,Sugar Loaf,52.08,-3.69,-2135.89,-766.97
SUM,Summerston,55.9,-4.29,-2629.1,-5744.05
SUU,Sunbury,51.42,-0.42,530.46,98.84
SUN,Sunderland,54.91,-1.38,-256.27,-4448.46
SUP,Sundridge Park,51.41,0.02,887.83,105.25
SNG,Sunningdale,51.39,-0.63,354.9,133.23
SNY,Sunnymeads,51.47,-0.56,415.27,31.57
SUR,Surbiton,51.39,-0.3,623.29,132.55
SUT,Sutton Coldfield,52.56,-1.82,-617.15,-1396.38
SUC,Sutton Common,51.38,-0.2,710.68,154.57
SPK,Sutton Parkway,53.11,-1.25,-144.75,-2112.61
SUO,Sutton (Surrey),51.36,-0.19,715.25,175.49
SWL,Swale,51.39,0.75,1480.57,136.76
SAY,Swanley,51.39,0.17,1009.23,131.34
SWM,Swanscombe,51.45,0.31,1123.66,58.73
SWA,Swansea,51.63,-3.94,-2343.55,-170.87
SNW,Swanwick,50.88,-1.27,-161.23,806.46
SWY,Sway,50.78,-1.61,-441.92,925.08
SWG,Swaythling,50.94,-1.38,-251.4,721.07
SWD,Swinderby,53.17,-0.7,298.09,-2184.81
SWI,Swindon,51.57,-1.79,-585.06,-93.06
SWE,Swineshead,52.97,-0.19,718.56,-1924.34
SNN,Swinton (Gr Manchester),53.51,-2.34,-1035.24,-2635.04
SWN,Swinton (Yorks),53.49,-1.31,-193.83,-2597.76
SYD,Sydenham,51.43,-0.05,826.96,87.19
SYH,Sydenham Hill,51.43,-0.08,805.68,80.06
SYL,Syon Lane,51.48,-0.33,606.02,16.06
SYS,Syston,52.69,-1.08,-11.39,-1565.53
TAC,Tackley,51.88,-1.3,-186.82,-504.93
TAD,Tadworth,51.29,-0.24,678.75,264.03
TAF,Taffs Well,51.54,-3.26,-1790.06,-60.88
TAI,Tain,57.81,-4.05,-2433.72,-8241.49
TAL,Talsarnau,52.9,-4.07,-2446.8,-1838.92
TLB,Talybont,52.77,-4.1,-2469.99,-1667.21
TLC,Tal-y-Cafn,53.23,-3.82,-2242.99,-2261.49
TAB,Tame Bridge Parkway,52.55,-1.98,-740.6,-1380.72
TAM,Tamworth,52.64,-1.69,-504.94,-1490.5
TAP,Taplow,51.52,-0.68,315.48,-38.4
TAT,Tattenham Corner,51.31,-0.24,673.33,241.15
TAU,Taunton,51.02,-3.1,-1658.9,613.47
TAY,Taynuilt,56.43,-5.24,-3402.21,-6437.42
TED,Teddington,51.42,-0.33,599.86,90.74
TEA,Tees-side Airport,54.52,-1.43,-291.28,-3943.33
TGM,Teignmouth,50.55,-3.49,-1979.07,1233.67
TFC,Telford Central,52.68,-2.44,-1119.66,-1547.86
TMC,Templecombe,51,-2.42,-1100.52,642.85
TEN,Tenby,51.67,-4.71,-2967.61,-233.2
TEY,Teynham,51.33,0.81,1529.75,209.58
THD,Thames Ditton,51.39,-0.34,594.7,137.06
THA,Thatcham,51.39,-1.24,-142.75,130.75
THH,Thatto Heath,53.44,-2.76,-1379.35,-2533
THW,The Hawthorns,52.51,-1.96,-730.64,-1318.7
TLK,The Lakes,52.36,-1.85,-634.21,-1128.43
THE,Theale,51.43,-1.07,-5.54,79.11
TEO,Theobalds Grove,51.69,-0.03,842.8,-258.64
TTF,Thetford,52.42,0.75,1478.89,-1206.25
THI,Thirsk,54.23,-1.37,-248.28,-3565.28
TBY,Thornaby,54.56,-1.3,-189.66,-3997.2
TNN,Thorne North,53.62,-0.97,78.17,-2767.04
TNS,Thorne South,53.6,-0.95,92.6,-2751.03
THO,Thornford,50.91,-2.58,-1232.82,759.14
THB,Thornliebank,55.81,-4.31,-2645.41,-5629.05
TNA,Thornton Abbey,53.65,-0.32,607.36,-2816.46
TTH,Thornton Heath,51.4,-0.1,788.82,123.71
THT,Thorntonhall,55.77,-4.25,-2596.04,-5574.03
TPB,Thorpe Bay,51.54,0.76,1492.48,-56.68
TPC,Thorpe Culvert,53.12,0.2,1033.9,-2123.81
TLS,Thorpe-le-Soken,51.85,1.16,1818.63,-461.18
TBD,Three Bridges,51.12,-0.16,739.74,491.86
TOK,Three Oaks,50.9,0.61,1371.47,773.56
THU,Thurgarton,53.03,-0.96,86.57,-2001.79
THC,Thurnscoe,53.55,-1.31,-196.25,-2674.44
THS,Thurso,58.59,-3.53,-2005.87,-9253.02
TRS,Thurston,52.25,0.81,1531.44,-986.03
TIL,Tilbury Town,51.46,0.35,1159.96,41.4
THL,Tile Hill,52.4,-1.6,-431.19,-1174.91
TLH,Tilehurst,51.47,-1.03,31.28,29.48
TIP,Tipton,52.53,-2.07,-813.59,-1351.39
TIR,Tir-Phil,51.72,-3.25,-1776.56,-295.74
TIS,Tisbury,51.06,-2.08,-824.44,564.98
TVP,Tiverton Parkway,50.92,-3.36,-1869.18,751.86
TOD,Todmorden,53.71,-2.1,-841.28,-2894.52
TOL,Tolworth,51.38,-0.28,643.09,152.95
TPN,Ton Pentre,51.65,-3.49,-1972.15,-200.41
TON,Tonbridge,51.19,0.27,1092.04,394.69
TDU,Tondu,51.55,-3.6,-2061.35,-69.45
TNF,Tonfanau,52.61,-4.12,-2492.1,-1459.76
TNP,Tonypandy,51.62,-3.45,-1941.71,-163.85
TOO,Tooting,51.42,-0.16,739.9,96.78
TOP,Topsham,50.69,-3.46,-1953.77,1053.72
TQY,Torquay,50.46,-3.54,-2019.02,1346.96
TRR,Torre,50.47,-3.55,-2021.28,1331.3
TOT,Totnes,50.44,-3.69,-2137.32,1379.98
TOM,Tottenham Hale,51.59,-0.06,822.33,-122.84
TTN,Totton,50.92,-1.48,-337.63,751.24
TWN,Town Green,53.54,-2.9,-1497.7,-2671.52
TRA,Trafford Park,53.45,-2.31,-1014.21,-2556.96
TRF,Trefforest,51.59,-3.33,-1840.78,-126.94
TRE,Trefforest Estate,51.57,-3.29,-1812.34,-96.73
TRH,Trehafod,51.61,-3.38,-1886.33,-151.31
TRB,Treherbert,51.67,-3.54,-2013.02,-232.28
TRY,Treorchy,51.66,-3.51,-1988.09,-213.1
TRM,Trimley,51.98,1.32,1947.43,-629.09
TRI,Tring,51.8,-0.62,363.54,-399.85
TRD,Troed-y-rhiw,51.71,-3.35,-1858.42,-284.68
TRN,Troon,55.54,-4.66,-2925.65,-5279.49
TRO,Trowbridge,51.32,-2.21,-934.82,227.27
TRU,Truro,50.26,-5.06,-3259.71,1604.29
TUL,Tulloch,56.88,-4.7,-2963.19,-7028.75
TUH,Tulse Hill,51.44,-0.11,785.5,70.86
TBW,Tunbridge Wells,51.13,0.26,1085.56,474.5
TUR,Turkey Street,51.67,-0.05,832.7,-232.8
TUT,Tutbury & Hatton,52.86,-1.68,-500.71,-1786.83
TWI,Twickenham,51.45,-0.33,602.74,57.03
TWY,Twyford,51.48,-0.86,167.1,24.23
TYC,Ty Croes,53.22,-4.47,-2778.41,-2253.92
TGS,Ty Glas,51.52,-3.2,-1735.9,-35.77
TYG,Tygwyn,52.89,-4.08,-2455.36,-1825.2
TYL,Tyndrum Lower,56.43,-4.71,-2974.2,-6440.74
TYS,Tyseley,52.45,-1.84,-628.78,-1251.86
TYW,Tywyn,52.59,-4.09,-2467.52,-1423.29
UCK,Uckfield,50.97,0.1,949.87,685.17
UDD,Uddingston,55.82,-4.09,-2461.9,-5645.55
ULC,Ulceby,53.62,-0.3,624.85,-2770.93
ULL,Ulleskelf,53.85,-1.21,-118.91,-3076.8
ULV,Ulverston,54.19,-3.1,-1655.46,-3517.51
